Name,Address,City,Zip,Date,Score,Type,Lat,Lng,kind,external_i,name_1,slug,set,metadata,resource_u
East Los Angeles,469 AMALIA AVE,LOS ANGELES,90022,09/04/2013,99,Restaurant,34.027324,-118.154338,L.A. County Neighborhood (V6),east-los-angeles,,east-los-angeles-la-county-neighborhood-v6,/1.0/boundary-set/la-county-neighborhoods-v6/,"{ ""city"": """", ""name"": ""East Los Angeles"", ""region"": ""eastside"", ""county"": ""los-a",/1.0/boundary/east-los-angeles-la-county-neighborhood-v6/
East Los Angeles,319 N HUMPHREYS AVE,LOS ANGELES,90022,08/29/2013,100,Restaurant,34.0391035,-118.1713877,L.A. County Neighborhood (V6),east-los-angeles,,east-los-angeles-la-county-neighborhood-v6,/1.0/boundary-set/la-county-neighborhoods-v6/,"{ ""city"": """", ""name"": ""East Los Angeles"", ""region"": ""eastside"", ""county"": ""los-a",/1.0/boundary/east-los-angeles-la-county-neighborhood-v6/
Bell,5600 RICKENBACKER RD 2AB,BELL,90201,07/30/2013,91,Restaurant,33.9775142,-118.1870156,L.A. County Neighborhood (V6),bell,,bell-la-county-neighborhood-v6,/1.0/boundary-set/la-county-neighborhoods-v6/,"{ ""city"": """", ""name"": ""Bell"", ""region"": ""southeast"", ""county"": ""los-angeles"", ""t",/1.0/boundary/bell-la-county-neighborhood-v6/
Downtown,554 S SAN PEDRO ST,LOS ANGELES,90013,07/29/2013,94,Restaurant,34.0425979,-118.2449709,L.A. County Neighborhood (V6),downtown,,downtown-la-county-neighborhood-v6,/1.0/boundary-set/la-county-neighborhoods-v6/,"{ ""city"": ""los-angeles"", ""name"": ""Downtown"", ""region"": ""central-la"", ""county"": """,/1.0/boundary/downtown-la-county-neighborhood-v6/
Sun Valley,7843 LANKERSHIM BLVD,NORTH HOLLYWOOD,91605,07/11/2013,93,Restaurant,34.2135801,-118.3881429,L.A. County Neighborhood (V6),sun-valley,,sun-valley-la-county-neighborhood-v6,/1.0/boundary-set/la-county-neighborhoods-v6/,"{ ""city"": ""los-angeles"", ""name"": ""Sun Valley"", ""region"": ""san-fernando-valley"",",/1.0/boundary/sun-valley-la-county-neighborhood-v6/
Green Meadows,9523 AVALON BLVD,LOS ANGELES,90003,07/10/2013,99,Restaurant,33.9493759,-118.2655975,L.A. County Neighborhood (V6),green-meadows,,green-meadows-la-county-neighborhood-v6,/1.0/boundary-set/la-county-neighborhoods-v6/,"{ ""city"": ""los-angeles"", ""name"": ""Green Meadows"", ""region"": ""south-la"", ""county""",/1.0/boundary/green-meadows-la-county-neighborhood-v6/
Downtown,126 E 6TH ST,LOS ANGELES,90014,07/10/2013,93,Restaurant,34.0448008,-118.2494269,L.A. County Neighborhood (V6),downtown,,downtown-la-county-neighborhood-v6,/1.0/boundary-set/la-county-neighborhoods-v6/,"{ ""city"": ""los-angeles"", ""name"": ""Downtown"", ""region"": ""central-la"", ""county"": """,/1.0/boundary/downtown-la-county-neighborhood-v6/
Sylmar,15180 BLEDSOE ST,SYLMAR,91342,07/09/2013,99,Restaurant,34.3065313,-118.4636091,L.A. County Neighborhood (V6),sylmar,,sylmar-la-county-neighborhood-v6,/1.0/boundary-set/la-county-neighborhoods-v6/,"{ ""city"": ""los-angeles"", ""name"": ""Sylmar"", ""region"": ""san-fernando-valley"", ""cou",/1.0/boundary/sylmar-la-county-neighborhood-v6/
Sylmar,15180 BLEDSOE ST,SYLMAR,91342,07/09/2013,96,Restaurant,34.3065313,-118.4636091,L.A. County Neighborhood (V6),sylmar,,sylmar-la-county-neighborhood-v6,/1.0/boundary-set/la-county-neighborhoods-v6/,"{ ""city"": ""los-angeles"", ""name"": ""Sylmar"", ""region"": ""san-fernando-valley"", ""cou",/1.0/boundary/sylmar-la-county-neighborhood-v6/
Sherman Oaks,14755 VENTURA BLVD,SHERMAN OAKS,91403,07/08/2013,92,Restaurant,34.152316,-118.4550382,L.A. County Neighborhood (V6),sherman-oaks,,sherman-oaks-la-county-neighborhood-v6,/1.0/boundary-set/la-county-neighborhoods-v6/,"{ ""city"": ""los-angeles"", ""name"": ""Sherman Oaks"", ""region"": ""san-fernando-valley""",/1.0/boundary/sherman-oaks-la-county-neighborhood-v6/
Sherman Oaks,14919 VENTURA BLVD,SHERMAN OAKS,91403,07/08/2013,96,Restaurant,34.1527891,-118.4581071,L.A. County Neighborhood (V6),sherman-oaks,,sherman-oaks-la-county-neighborhood-v6,/1.0/boundary-set/la-county-neighborhoods-v6/,"{ ""city"": ""los-angeles"", ""name"": ""Sherman Oaks"", ""region"": ""san-fernando-valley""",/1.0/boundary/sherman-oaks-la-county-neighborhood-v6/
Van Nuys,7758 DENSMORE AVE,VAN NUYS,91405,07/08/2013,92,Restaurant,34.2118577,-118.4770934,L.A. County Neighborhood (V6),van-nuys,,van-nuys-la-county-neighborhood-v6,/1.0/boundary-set/la-county-neighborhoods-v6/,"{ ""city"": ""los-angeles"", ""name"": ""Van Nuys"", ""region"": ""san-fernando-valley"", ""c",/1.0/boundary/van-nuys-la-county-neighborhood-v6/
Downtown,545 S SAN PEDRO ST,LOS ANGELES,90013,07/03/2013,100,Restaurant,34.043327,-118.245111,L.A. County Neighborhood (V6),downtown,,downtown-la-county-neighborhood-v6,/1.0/boundary-set/la-county-neighborhoods-v6/,"{ ""city"": ""los-angeles"", ""name"": ""Downtown"", ""region"": ""central-la"", ""county"": """,/1.0/boundary/downtown-la-county-neighborhood-v6/
Angeles Crest,9877 CRYSTAL LAKE RD,AZUSA,91702,06/30/2013,100,Restaurant,34.3041758,-117.8401543,L.A. County Neighborhood (V6),angeles-crest,,angeles-crest-la-county-neighborhood-v6,/1.0/boundary-set/la-county-neighborhoods-v6/,"{ ""city"": """", ""name"": ""Angeles Crest"", ""region"": ""angeles-forest"", ""county"": ""lo",/1.0/boundary/angeles-crest-la-county-neighborhood-v6/
Angeles Crest,100 MOUNT WILSON CIR,COUNTY STRIP NORTH,91023,06/30/2013,100,Restaurant,34.22763,-118.0677,L.A. County Neighborhood (V6),angeles-crest,,angeles-crest-la-county-neighborhood-v6,/1.0/boundary-set/la-county-neighborhoods-v6/,"{ ""city"": """", ""name"": ""Angeles Crest"", ""region"": ""angeles-forest"", ""county"": ""lo",/1.0/boundary/angeles-crest-la-county-neighborhood-v6/
Hollywood,1057 N VINE ST,LOS ANGELES,90038,06/28/2013,95,Restaurant,34.090092,-118.326847,L.A. County Neighborhood (V6),hollywood,,hollywood-la-county-neighborhood-v6,/1.0/boundary-set/la-county-neighborhoods-v6/,"{ ""city"": ""los-angeles"", ""name"": ""Hollywood"", ""region"": ""central-la"", ""county"":",/1.0/boundary/hollywood-la-county-neighborhood-v6/
Inglewood,3883 W CENTURY BLVD,INGLEWOOD,90301,06/28/2013,80,Restaurant,33.9472293,-118.3402142,L.A. County Neighborhood (V6),inglewood,,inglewood-la-county-neighborhood-v6,/1.0/boundary-set/la-county-neighborhoods-v6/,"{ ""city"": """", ""name"": ""Inglewood"", ""region"": ""south-bay"", ""county"": ""los-angeles",/1.0/boundary/inglewood-la-county-neighborhood-v6/
Gardena,15501 S VERMONT AVE,GARDENA,90247,06/28/2013,92,Restaurant,33.8906104,-118.2921117,L.A. County Neighborhood (V6),gardena,,gardena-la-county-neighborhood-v6,/1.0/boundary-set/la-county-neighborhoods-v6/,"{ ""city"": """", ""name"": ""Gardena"", ""region"": ""south-bay"", ""county"": ""los-angeles"",",/1.0/boundary/gardena-la-county-neighborhood-v6/
Willowbrook,110 W EL SEGUNDO BLVD,LOS ANGELES,90061,06/28/2013,90,Restaurant,33.916194,-118.2741689,L.A. County Neighborhood (V6),willowbrook,,willowbrook-la-county-neighborhood-v6,/1.0/boundary-set/la-county-neighborhoods-v6/,"{ ""city"": """", ""name"": ""Willowbrook"", ""region"": ""south-la"", ""county"": ""los-angele",/1.0/boundary/willowbrook-la-county-neighborhood-v6/
Claremont,1055 W FOOTHILL BLVD,CLAREMONT,91711,06/28/2013,93,Restaurant,34.1071535,-117.7355977,L.A. County Neighborhood (V6),claremont,,claremont-la-county-neighborhood-v6,/1.0/boundary-set/la-county-neighborhoods-v6/,"{ ""city"": """", ""name"": ""Claremont"", ""region"": ""pomona-valley"", ""county"": ""los-ang",/1.0/boundary/claremont-la-county-neighborhood-v6/
West Covina,265 S GLENDORA AVE MAIN,WEST COVINA,91790,06/28/2013,100,Restaurant,34.0656464,-117.9424743,L.A. County Neighborhood (V6),west-covina,,west-covina-la-county-neighborhood-v6,/1.0/boundary-set/la-county-neighborhoods-v6/,"{ ""city"": """", ""name"": ""West Covina"", ""region"": ""san-gabriel-valley"", ""county"": """,/1.0/boundary/west-covina-la-county-neighborhood-v6/
West Covina,265 S GLENDORA AVE,WEST COVINA,91790,06/28/2013,98,Restaurant,34.070261,-117.923442,L.A. County Neighborhood (V6),west-covina,,west-covina-la-county-neighborhood-v6,/1.0/boundary-set/la-county-neighborhoods-v6/,"{ ""city"": """", ""name"": ""West Covina"", ""region"": ""san-gabriel-valley"", ""county"": """,/1.0/boundary/west-covina-la-county-neighborhood-v6/
Glendora,265 S GLENDORA AVE SR,WEST COVINA,91791,06/28/2013,100,Restaurant,34.1194259,-117.862856,L.A. County Neighborhood (V6),glendora,,glendora-la-county-neighborhood-v6,/1.0/boundary-set/la-county-neighborhoods-v6/,"{ ""city"": """", ""name"": ""Glendora"", ""region"": ""san-gabriel-valley"", ""county"": ""los",/1.0/boundary/glendora-la-county-neighborhood-v6/
Claremont,1065 W FOOTHILL BLVD,CLAREMONT,91711,06/28/2013,92,Restaurant,34.1071581,-117.7357842,L.A. County Neighborhood (V6),claremont,,claremont-la-county-neighborhood-v6,/1.0/boundary-set/la-county-neighborhoods-v6/,"{ ""city"": """", ""name"": ""Claremont"", ""region"": ""pomona-valley"", ""county"": ""los-ang",/1.0/boundary/claremont-la-county-neighborhood-v6/
Florence-Firestone,1748 E FLORENCE AVE,LOS ANGELES,90001,06/28/2013,96,Restaurant,33.9746078,-118.2415585,L.A. County Neighborhood (V6),florence-firestone,,florence-firestone-la-county-neighborhood-v6,/1.0/boundary-set/la-county-neighborhoods-v6/,"{ ""city"": """", ""name"": ""Florence-Firestone"", ""region"": ""south-la"", ""county"": ""los",/1.0/boundary/florence-firestone-la-county-neighborhood-v6/
Unincorporated Santa Susana Mountains,25220 THE OLD ROAD,NEWHALL,91321,06/28/2013,95,Restaurant,34.3770847,-118.5653282,L.A. County Neighborhood (V6),unincorporated-santa-susana-mountains,,unincorporated-santa-susana-mountains-la-county-neighborhood-v6,/1.0/boundary-set/la-county-neighborhoods-v6/,"{ ""city"": """", ""name"": ""Unincorporated Santa Susana Mountains"", ""region"": ""northw",/1.0/boundary/unincorporated-santa-susana-mountains-la-county-neighborhood-v6/
Leimert Park,3515 RODEO RD,LOS ANGELES,90008,06/28/2013,94,Restaurant,34.0215528,-118.3342984,L.A. County Neighborhood (V6),leimert-park,,leimert-park-la-county-neighborhood-v6,/1.0/boundary-set/la-county-neighborhoods-v6/,"{ ""city"": ""los-angeles"", ""name"": ""Leimert Park"", ""region"": ""south-la"", ""county"":",/1.0/boundary/leimert-park-la-county-neighborhood-v6/
Glendale,714 S BRAND BLVD,GLENDALE,91204,06/28/2013,99,Restaurant,34.1378006,-118.2546498,L.A. County Neighborhood (V6),glendale,,glendale-la-county-neighborhood-v6,/1.0/boundary-set/la-county-neighborhoods-v6/,"{ ""city"": """", ""name"": ""Glendale"", ""region"": ""verdugos"", ""county"": ""los-angeles"",",/1.0/boundary/glendale-la-county-neighborhood-v6/
Burbank,511 N GLENOAKS BLVD,BURBANK,91502,06/28/2013,100,Restaurant,34.1861674,-118.3104312,L.A. County Neighborhood (V6),burbank,,burbank-la-county-neighborhood-v6,/1.0/boundary-set/la-county-neighborhoods-v6/,"{ ""city"": """", ""name"": ""Burbank"", ""region"": ""san-fernando-valley"", ""county"": ""los",/1.0/boundary/burbank-la-county-neighborhood-v6/
Burbank,321 E MAGNOLIA BLVD,BURBANK,91502,06/28/2013,100,Restaurant,34.184655,-118.310519,L.A. County Neighborhood (V6),burbank,,burbank-la-county-neighborhood-v6,/1.0/boundary-set/la-county-neighborhoods-v6/,"{ ""city"": """", ""name"": ""Burbank"", ""region"": ""san-fernando-valley"", ""county"": ""los",/1.0/boundary/burbank-la-county-neighborhood-v6/
Woodland Hills,22901 VENTURA BLVD,WOODLAND HILLS,91364,06/28/2013,90,Restaurant,34.1656764,-118.625288,L.A. County Neighborhood (V6),woodland-hills,,woodland-hills-la-county-neighborhood-v6,/1.0/boundary-set/la-county-neighborhoods-v6/,"{ ""city"": ""los-angeles"", ""name"": ""Woodland Hills"", ""region"": ""san-fernando-valle",/1.0/boundary/woodland-hills-la-county-neighborhood-v6/
Woodland Hills,6001 FALLBROOK AVE,WOODLAND HILLS,91367,06/28/2013,91,Restaurant,34.1794025,-118.623868,L.A. County Neighborhood (V6),woodland-hills,,woodland-hills-la-county-neighborhood-v6,/1.0/boundary-set/la-county-neighborhoods-v6/,"{ ""city"": ""los-angeles"", ""name"": ""Woodland Hills"", ""region"": ""san-fernando-valle",/1.0/boundary/woodland-hills-la-county-neighborhood-v6/
Inglewood,633 W MANCHESTER BLVD,INGLEWOOD,90301,06/27/2013,86,Restaurant,33.9620837,-118.3678273,L.A. County Neighborhood (V6),inglewood,,inglewood-la-county-neighborhood-v6,/1.0/boundary-set/la-county-neighborhoods-v6/,"{ ""city"": """", ""name"": ""Inglewood"", ""region"": ""south-bay"", ""county"": ""los-angeles",/1.0/boundary/inglewood-la-county-neighborhood-v6/
Vermont Vista,10020 S FIGUEROA ST,LOS ANGELES,90003,06/27/2013,90,Restaurant,33.9453536,-118.2825957,L.A. County Neighborhood (V6),vermont-vista,,vermont-vista-la-county-neighborhood-v6,/1.0/boundary-set/la-county-neighborhoods-v6/,"{ ""city"": ""los-angeles"", ""name"": ""Vermont Vista"", ""region"": ""south-la"", ""county""",/1.0/boundary/vermont-vista-la-county-neighborhood-v6/
Inglewood,1050 S PRAIRIE AVE,INGLEWOOD,90301,06/27/2013,100,Restaurant,33.9533992,-118.3402205,L.A. County Neighborhood (V6),inglewood,,inglewood-la-county-neighborhood-v6,/1.0/boundary-set/la-county-neighborhoods-v6/,"{ ""city"": """", ""name"": ""Inglewood"", ""region"": ""south-bay"", ""county"": ""los-angeles",/1.0/boundary/inglewood-la-county-neighborhood-v6/
Inglewood,1050 S PRAIRIE AVE,INGLEWOOD,90301,06/27/2013,99,Restaurant,33.9533992,-118.3402205,L.A. County Neighborhood (V6),inglewood,,inglewood-la-county-neighborhood-v6,/1.0/boundary-set/la-county-neighborhoods-v6/,"{ ""city"": """", ""name"": ""Inglewood"", ""region"": ""south-bay"", ""county"": ""los-angeles",/1.0/boundary/inglewood-la-county-neighborhood-v6/
Inglewood,1050 S PRAIRIE AVE,INGLEWOOD,90301,06/27/2013,94,Restaurant,33.9533992,-118.3402205,L.A. County Neighborhood (V6),inglewood,,inglewood-la-county-neighborhood-v6,/1.0/boundary-set/la-county-neighborhoods-v6/,"{ ""city"": """", ""name"": ""Inglewood"", ""region"": ""south-bay"", ""county"": ""los-angeles",/1.0/boundary/inglewood-la-county-neighborhood-v6/
Lennox,4461 LENNOX BLVD,LENNOX,90304,06/27/2013,93,Restaurant,33.9382869,-118.3547055,L.A. County Neighborhood (V6),lennox,,lennox-la-county-neighborhood-v6,/1.0/boundary-set/la-county-neighborhoods-v6/,"{ ""city"": """", ""name"": ""Lennox"", ""region"": ""south-bay"", ""county"": ""los-angeles"",",/1.0/boundary/lennox-la-county-neighborhood-v6/
Gardena,1199 W ARTESIA BLVD,GARDENA,90248,06/27/2013,89,Restaurant,33.8728155,-118.3011822,L.A. County Neighborhood (V6),gardena,,gardena-la-county-neighborhood-v6,/1.0/boundary-set/la-county-neighborhoods-v6/,"{ ""city"": """", ""name"": ""Gardena"", ""region"": ""south-bay"", ""county"": ""los-angeles"",",/1.0/boundary/gardena-la-county-neighborhood-v6/
Claremont,970 W FOOTHILL BLVD,CLAREMONT,91711,06/27/2013,91,Restaurant,34.1067907,-117.7336074,L.A. County Neighborhood (V6),claremont,,claremont-la-county-neighborhood-v6,/1.0/boundary-set/la-county-neighborhoods-v6/,"{ ""city"": """", ""name"": ""Claremont"", ""region"": ""pomona-valley"", ""county"": ""los-ang",/1.0/boundary/claremont-la-county-neighborhood-v6/
Downey,8148 FIRESTONE BLVD,DOWNEY,90241,06/27/2013,96,Restaurant,33.9410657,-118.1353591,L.A. County Neighborhood (V6),downey,,downey-la-county-neighborhood-v6,/1.0/boundary-set/la-county-neighborhoods-v6/,"{ ""city"": """", ""name"": ""Downey"", ""region"": ""southeast"", ""county"": ""los-angeles"",",/1.0/boundary/downey-la-county-neighborhood-v6/
Rowland Heights,18406 COLIMA RD #E-F,ROWLAND HEIGHTS,91748,06/27/2013,86,Restaurant,33.988193,-117.9031687,L.A. County Neighborhood (V6),rowland-heights,,rowland-heights-la-county-neighborhood-v6,/1.0/boundary-set/la-county-neighborhoods-v6/,"{ ""city"": """", ""name"": ""Rowland Heights"", ""region"": ""san-gabriel-valley"", ""county",/1.0/boundary/rowland-heights-la-county-neighborhood-v6/
Rowland Heights,17515 COLIMA RD #B,CITY OF INDUSTRY,91748,06/27/2013,92,Restaurant,33.9883658,-117.9075089,L.A. County Neighborhood (V6),rowland-heights,,rowland-heights-la-county-neighborhood-v6,/1.0/boundary-set/la-county-neighborhoods-v6/,"{ ""city"": """", ""name"": ""Rowland Heights"", ""region"": ""san-gabriel-valley"", ""county",/1.0/boundary/rowland-heights-la-county-neighborhood-v6/
Industry,17859 E COLIMA RD,CITY OF INDUSTRY,91748,06/27/2013,96,Restaurant,33.9901052,-117.9151702,L.A. County Neighborhood (V6),industry,,industry-la-county-neighborhood-v6,/1.0/boundary-set/la-county-neighborhoods-v6/,"{ ""city"": """", ""name"": ""Industry"", ""region"": ""san-gabriel-valley"", ""county"": ""los",/1.0/boundary/industry-la-county-neighborhood-v6/
Claremont,440 AUTO CENTER DR,CLAREMONT,91711,06/27/2013,94,Restaurant,34.0807959,-117.7207024,L.A. County Neighborhood (V6),claremont,,claremont-la-county-neighborhood-v6,/1.0/boundary-set/la-county-neighborhoods-v6/,"{ ""city"": """", ""name"": ""Claremont"", ""region"": ""pomona-valley"", ""county"": ""los-ang",/1.0/boundary/claremont-la-county-neighborhood-v6/
Claremont,984 W FOOTHILL BLVD,CLAREMONT,91711,06/27/2013,95,Restaurant,34.106468,-117.733849,L.A. County Neighborhood (V6),claremont,,claremont-la-county-neighborhood-v6,/1.0/boundary-set/la-county-neighborhoods-v6/,"{ ""city"": """", ""name"": ""Claremont"", ""region"": ""pomona-valley"", ""county"": ""los-ang",/1.0/boundary/claremont-la-county-neighborhood-v6/
Palmdale,40124 W 10TH ST,PALMDALE,93551,06/27/2013,100,Restaurant,34.611436,-118.147305,L.A. County Neighborhood (V6),palmdale,,palmdale-la-county-neighborhood-v6,/1.0/boundary-set/la-county-neighborhoods-v6/,"{ ""city"": """", ""name"": ""Palmdale"", ""region"": ""antelope-valley"", ""county"": ""los-an",/1.0/boundary/palmdale-la-county-neighborhood-v6/
Santa Clarita,26471 CARL BOYER DR,SANTA CLARITA,91350,06/27/2013,94,Restaurant,34.4142085,-118.5063606,L.A. County Neighborhood (V6),santa-clarita,,santa-clarita-la-county-neighborhood-v6,/1.0/boundary-set/la-county-neighborhoods-v6/,"{ ""city"": """", ""name"": ""Santa Clarita"", ""region"": ""northwest-county"", ""county"": """,/1.0/boundary/santa-clarita-la-county-neighborhood-v6/
Unincorporated Santa Susana Mountains,26810 THE OLD ROAD,VALENCIA,91355,06/27/2013,100,Restaurant,34.4080254,-118.5791435,L.A. County Neighborhood (V6),unincorporated-santa-susana-mountains,,unincorporated-santa-susana-mountains-la-county-neighborhood-v6,/1.0/boundary-set/la-county-neighborhoods-v6/,"{ ""city"": """", ""name"": ""Unincorporated Santa Susana Mountains"", ""region"": ""northw",/1.0/boundary/unincorporated-santa-susana-mountains-la-county-neighborhood-v6/
Unincorporated Santa Susana Mountains,26882 THE OLD ROAD,VALENCIA,91381,06/27/2013,100,Restaurant,34.4097937,-118.578714,L.A. County Neighborhood (V6),unincorporated-santa-susana-mountains,,unincorporated-santa-susana-mountains-la-county-neighborhood-v6,/1.0/boundary-set/la-county-neighborhoods-v6/,"{ ""city"": """", ""name"": ""Unincorporated Santa Susana Mountains"", ""region"": ""northw",/1.0/boundary/unincorporated-santa-susana-mountains-la-county-neighborhood-v6/
Wilmington,445 E ANAHEIM ST,WILMINGTON,90744,06/27/2013,90,Restaurant,33.780544,-118.257849,L.A. County Neighborhood (V6),wilmington,,wilmington-la-county-neighborhood-v6,/1.0/boundary-set/la-county-neighborhoods-v6/,"{ ""city"": ""los-angeles"", ""name"": ""Wilmington"", ""region"": ""harbor"", ""county"": ""lo",/1.0/boundary/wilmington-la-county-neighborhood-v6/
Unincorporated Santa Susana Mountains,26888 THE OLD ROAD,STEVENSON RANCH,91381,06/27/2013,100,Restaurant,34.4104348,-118.5791712,L.A. County Neighborhood (V6),unincorporated-santa-susana-mountains,,unincorporated-santa-susana-mountains-la-county-neighborhood-v6,/1.0/boundary-set/la-county-neighborhoods-v6/,"{ ""city"": """", ""name"": ""Unincorporated Santa Susana Mountains"", ""region"": ""northw",/1.0/boundary/unincorporated-santa-susana-mountains-la-county-neighborhood-v6/
Unincorporated Santa Susana Mountains,26894 THE OLD ROAD,VALENCIA,91381,06/27/2013,95,Restaurant,34.4104385,-118.5791703,L.A. County Neighborhood (V6),unincorporated-santa-susana-mountains,,unincorporated-santa-susana-mountains-la-county-neighborhood-v6,/1.0/boundary-set/la-county-neighborhoods-v6/,"{ ""city"": """", ""name"": ""Unincorporated Santa Susana Mountains"", ""region"": ""northw",/1.0/boundary/unincorporated-santa-susana-mountains-la-county-neighborhood-v6/
La Canada Flintridge,4800 OAK GROVE DR #190,PASADENA,91109,06/27/2013,97,Restaurant,34.1986494,-118.174585,L.A. County Neighborhood (V6),la-canada-flintridge,,la-canada-flintridge-la-county-neighborhood-v6,/1.0/boundary-set/la-county-neighborhoods-v6/,"{ ""city"": """", ""name"": ""La Canada Flintridge"", ""region"": ""verdugos"", ""county"": ""l",/1.0/boundary/la-canada-flintridge-la-county-neighborhood-v6/
La Canada Flintridge,4800 OAK GROVE DR #303,PASADENA,91109,06/27/2013,94,Restaurant,34.1986494,-118.174585,L.A. County Neighborhood (V6),la-canada-flintridge,,la-canada-flintridge-la-county-neighborhood-v6,/1.0/boundary-set/la-county-neighborhoods-v6/,"{ ""city"": """", ""name"": ""La Canada Flintridge"", ""region"": ""verdugos"", ""county"": ""l",/1.0/boundary/la-canada-flintridge-la-county-neighborhood-v6/
Montebello,1440 W BEVERLY BLVD,MONTEBELLO,90640,06/27/2013,80,Restaurant,34.0188222,-118.113637,L.A. County Neighborhood (V6),montebello,,montebello-la-county-neighborhood-v6,/1.0/boundary-set/la-county-neighborhoods-v6/,"{ ""city"": """", ""name"": ""Montebello"", ""region"": ""southeast"", ""county"": ""los-angele",/1.0/boundary/montebello-la-county-neighborhood-v6/
Montebello,2302 W WHITTIER BLVD,MONTEBELLO,90640,06/27/2013,96,Restaurant,34.013998,-118.125531,L.A. County Neighborhood (V6),montebello,,montebello-la-county-neighborhood-v6,/1.0/boundary-set/la-county-neighborhoods-v6/,"{ ""city"": """", ""name"": ""Montebello"", ""region"": ""southeast"", ""county"": ""los-angele",/1.0/boundary/montebello-la-county-neighborhood-v6/
Studio City,4024 RADFORD AVE,STUDIO CITY,91604,06/27/2013,99,Restaurant,34.1444892,-118.3929058,L.A. County Neighborhood (V6),studio-city,,studio-city-la-county-neighborhood-v6,/1.0/boundary-set/la-county-neighborhoods-v6/,"{ ""city"": ""los-angeles"", ""name"": ""Studio City"", ""region"": ""san-fernando-valley"",",/1.0/boundary/studio-city-la-county-neighborhood-v6/
Studio City,4024 RADFORD AVE,STUDIO CITY,91604,06/27/2013,90,Restaurant,34.1444892,-118.3929058,L.A. County Neighborhood (V6),studio-city,,studio-city-la-county-neighborhood-v6,/1.0/boundary-set/la-county-neighborhoods-v6/,"{ ""city"": ""los-angeles"", ""name"": ""Studio City"", ""region"": ""san-fernando-valley"",",/1.0/boundary/studio-city-la-county-neighborhood-v6/
La Canada Flintridge,4800 OAK GROVE DR #167,PASADENA,91109,06/27/2013,90,Restaurant,34.1986494,-118.174585,L.A. County Neighborhood (V6),la-canada-flintridge,,la-canada-flintridge-la-county-neighborhood-v6,/1.0/boundary-set/la-county-neighborhoods-v6/,"{ ""city"": """", ""name"": ""La Canada Flintridge"", ""region"": ""verdugos"", ""county"": ""l",/1.0/boundary/la-canada-flintridge-la-county-neighborhood-v6/
Santa Clarita,27027 TOURNEY RD,VALENCIA,91355,06/27/2013,91,Restaurant,34.413779,-118.574983,L.A. County Neighborhood (V6),santa-clarita,,santa-clarita-la-county-neighborhood-v6,/1.0/boundary-set/la-county-neighborhoods-v6/,"{ ""city"": """", ""name"": ""Santa Clarita"", ""region"": ""northwest-county"", ""county"": """,/1.0/boundary/santa-clarita-la-county-neighborhood-v6/
Studio City,4200 RADFORD AVE BSMT,STUDIO CITY,91604,06/27/2013,96,Restaurant,34.1462569,-118.3920798,L.A. County Neighborhood (V6),studio-city,,studio-city-la-county-neighborhood-v6,/1.0/boundary-set/la-county-neighborhoods-v6/,"{ ""city"": ""los-angeles"", ""name"": ""Studio City"", ""region"": ""san-fernando-valley"",",/1.0/boundary/studio-city-la-county-neighborhood-v6/
Unincorporated Santa Susana Mountains,28201 FRANKLIN PKWY,SANTA CLARITA,91383,06/27/2013,92,Restaurant,34.4343541,-118.6297471,L.A. County Neighborhood (V6),unincorporated-santa-susana-mountains,,unincorporated-santa-susana-mountains-la-county-neighborhood-v6,/1.0/boundary-set/la-county-neighborhoods-v6/,"{ ""city"": """", ""name"": ""Unincorporated Santa Susana Mountains"", ""region"": ""northw",/1.0/boundary/unincorporated-santa-susana-mountains-la-county-neighborhood-v6/
Boyle Heights,2811 E OLYMPIC BLVD,LOS ANGELES,90023,06/27/2013,99,Restaurant,34.023421,-118.2171919,L.A. County Neighborhood (V6),boyle-heights,,boyle-heights-la-county-neighborhood-v6,/1.0/boundary-set/la-county-neighborhoods-v6/,"{ ""city"": ""los-angeles"", ""name"": ""Boyle Heights"", ""region"": ""eastside"", ""county""",/1.0/boundary/boyle-heights-la-county-neighborhood-v6/
Glendale,1755 W GLENOAKS BLVD,GLENDALE,91201,06/27/2013,96,Restaurant,34.1725235,-118.2909821,L.A. County Neighborhood (V6),glendale,,glendale-la-county-neighborhood-v6,/1.0/boundary-set/la-county-neighborhoods-v6/,"{ ""city"": """", ""name"": ""Glendale"", ""region"": ""verdugos"", ""county"": ""los-angeles"",",/1.0/boundary/glendale-la-county-neighborhood-v6/
North Hollywood,"5560 VINELAND AVE E&F;",NORTH HOLLYWOOD,91601,06/27/2013,90,Restaurant,34.1549764,-118.3775955,L.A. County Neighborhood (V6),north-hollywood,,north-hollywood-la-county-neighborhood-v6,/1.0/boundary-set/la-county-neighborhoods-v6/,"{ ""city"": ""los-angeles"", ""name"": ""North Hollywood"", ""region"": ""san-fernando-vall",/1.0/boundary/north-hollywood-la-county-neighborhood-v6/
San Gabriel,712 S DEL MAR AVE,SAN GABRIEL,91776,06/27/2013,90,Restaurant,34.093502,-118.099269,L.A. County Neighborhood (V6),san-gabriel,,san-gabriel-la-county-neighborhood-v6,/1.0/boundary-set/la-county-neighborhoods-v6/,"{ ""city"": """", ""name"": ""San Gabriel"", ""region"": ""san-gabriel-valley"", ""county"": """,/1.0/boundary/san-gabriel-la-county-neighborhood-v6/
Winnetka,20050 VANOWEN ST #J,CANOGA PARK,91306,06/27/2013,86,Restaurant,34.1934189,-118.5707781,L.A. County Neighborhood (V6),winnetka,,winnetka-la-county-neighborhood-v6,/1.0/boundary-set/la-county-neighborhoods-v6/,"{ ""city"": ""los-angeles"", ""name"": ""Winnetka"", ""region"": ""san-fernando-valley"", ""c",/1.0/boundary/winnetka-la-county-neighborhood-v6/
Calabasas,26500 AGOURA RD #116,CALABASAS,91302,06/27/2013,90,Restaurant,34.1434185,-118.6994521,L.A. County Neighborhood (V6),calabasas,,calabasas-la-county-neighborhood-v6,/1.0/boundary-set/la-county-neighborhoods-v6/,"{ ""city"": """", ""name"": ""Calabasas"", ""region"": ""santa-monica-mountains"", ""county"":",/1.0/boundary/calabasas-la-county-neighborhood-v6/
Woodland Hills,22757 VENTURA BLVD,WOODLAND HILLS,91367,06/27/2013,95,Restaurant,34.1665399,-118.6226983,L.A. County Neighborhood (V6),woodland-hills,,woodland-hills-la-county-neighborhood-v6,/1.0/boundary-set/la-county-neighborhoods-v6/,"{ ""city"": ""los-angeles"", ""name"": ""Woodland Hills"", ""region"": ""san-fernando-valle",/1.0/boundary/woodland-hills-la-county-neighborhood-v6/
Woodland Hills,21912 VENTURA BLVD,WOODLAND HILLS,91364,06/27/2013,95,Restaurant,34.1681472,-118.604317,L.A. County Neighborhood (V6),woodland-hills,,woodland-hills-la-county-neighborhood-v6,/1.0/boundary-set/la-county-neighborhoods-v6/,"{ ""city"": ""los-angeles"", ""name"": ""Woodland Hills"", ""region"": ""san-fernando-valle",/1.0/boundary/woodland-hills-la-county-neighborhood-v6/
Woodland Hills,21600 OXNARD ST 130,WOODLAND HILLS,91367,06/27/2013,96,Restaurant,34.178451,-118.600256,L.A. County Neighborhood (V6),woodland-hills,,woodland-hills-la-county-neighborhood-v6,/1.0/boundary-set/la-county-neighborhoods-v6/,"{ ""city"": ""los-angeles"", ""name"": ""Woodland Hills"", ""region"": ""san-fernando-valle",/1.0/boundary/woodland-hills-la-county-neighborhood-v6/
Winnetka,19801 VANOWEN ST A1,CANOGA PARK,91306,06/27/2013,80,Restaurant,34.1943999,-118.5645478,L.A. County Neighborhood (V6),winnetka,,winnetka-la-county-neighborhood-v6,/1.0/boundary-set/la-county-neighborhoods-v6/,"{ ""city"": ""los-angeles"", ""name"": ""Winnetka"", ""region"": ""san-fernando-valley"", ""c",/1.0/boundary/winnetka-la-county-neighborhood-v6/
Woodland Hills,6020 A CANOGA AVE,WOODLAND HILLS,91367,06/27/2013,95,Restaurant,34.180027,-118.596946,L.A. County Neighborhood (V6),woodland-hills,,woodland-hills-la-county-neighborhood-v6,/1.0/boundary-set/la-county-neighborhoods-v6/,"{ ""city"": ""los-angeles"", ""name"": ""Woodland Hills"", ""region"": ""san-fernando-valle",/1.0/boundary/woodland-hills-la-county-neighborhood-v6/
Encino,16350 VENTURA BLVD,ENCINO,91436,06/27/2013,92,Restaurant,34.1569137,-118.4892896,L.A. County Neighborhood (V6),encino,,encino-la-county-neighborhood-v6,/1.0/boundary-set/la-county-neighborhoods-v6/,"{ ""city"": ""los-angeles"", ""name"": ""Encino"", ""region"": ""san-fernando-valley"", ""cou",/1.0/boundary/encino-la-county-neighborhood-v6/
Woodland Hills,6360 CANOGA AVE,WOODLAND HILLS,91367,06/27/2013,97,Restaurant,34.1862323,-118.596959,L.A. County Neighborhood (V6),woodland-hills,,woodland-hills-la-county-neighborhood-v6,/1.0/boundary-set/la-county-neighborhoods-v6/,"{ ""city"": ""los-angeles"", ""name"": ""Woodland Hills"", ""region"": ""san-fernando-valle",/1.0/boundary/woodland-hills-la-county-neighborhood-v6/
Woodland Hills,6424 CANOGA AVE,WOODLAND HILLS,91367,06/27/2013,97,Restaurant,34.1872248,-118.5968423,L.A. County Neighborhood (V6),woodland-hills,,woodland-hills-la-county-neighborhood-v6,/1.0/boundary-set/la-county-neighborhoods-v6/,"{ ""city"": ""los-angeles"", ""name"": ""Woodland Hills"", ""region"": ""san-fernando-valle",/1.0/boundary/woodland-hills-la-county-neighborhood-v6/
Winnetka,20429 SHERMAN WY,CANOGA PARK,91306,06/27/2013,90,Restaurant,34.2011458,-118.5787606,L.A. County Neighborhood (V6),winnetka,,winnetka-la-county-neighborhood-v6,/1.0/boundary-set/la-county-neighborhoods-v6/,"{ ""city"": ""los-angeles"", ""name"": ""Winnetka"", ""region"": ""san-fernando-valley"", ""c",/1.0/boundary/winnetka-la-county-neighborhood-v6/
Malibu,29350 PACIFIC COAST HWY,MALIBU,90265,06/27/2013,93,Restaurant,34.018891,-118.813257,L.A. County Neighborhood (V6),malibu,,malibu-la-county-neighborhood-v6,/1.0/boundary-set/la-county-neighborhoods-v6/,"{ ""city"": """", ""name"": ""Malibu"", ""region"": ""santa-monica-mountains"", ""county"": ""l",/1.0/boundary/malibu-la-county-neighborhood-v6/
Pico-Union,1101 S VERMONT AVE. #112,LOS ANGELES,90006,06/26/2013,95,Restaurant,34.0505141,-118.2918463,L.A. County Neighborhood (V6),pico-union,,pico-union-la-county-neighborhood-v6,/1.0/boundary-set/la-county-neighborhoods-v6/,"{ ""city"": ""los-angeles"", ""name"": ""Pico-Union"", ""region"": ""central-la"", ""county"":",/1.0/boundary/pico-union-la-county-neighborhood-v6/
Koreatown,2897 W OLYMPIC BLVD #101,LOS ANGELES,90006,06/26/2013,91,Restaurant,34.053027,-118.297577,L.A. County Neighborhood (V6),koreatown,,koreatown-la-county-neighborhood-v6,/1.0/boundary-set/la-county-neighborhoods-v6/,"{ ""city"": ""los-angeles"", ""name"": ""Koreatown"", ""region"": ""central-la"", ""county"":",/1.0/boundary/koreatown-la-county-neighborhood-v6/
Leimert Park,4307 LEIMERT BLVD,LOS ANGELES,90008,06/26/2013,96,Restaurant,34.0053178,-118.3301554,L.A. County Neighborhood (V6),leimert-park,,leimert-park-la-county-neighborhood-v6,/1.0/boundary-set/la-county-neighborhoods-v6/,"{ ""city"": ""los-angeles"", ""name"": ""Leimert Park"", ""region"": ""south-la"", ""county"":",/1.0/boundary/leimert-park-la-county-neighborhood-v6/
West Hollywood,8687 MELROSE AVE,WEST HOLLYWOOD,90069,06/26/2013,99,Restaurant,34.0821578,-118.3823832,L.A. County Neighborhood (V6),west-hollywood,,west-hollywood-la-county-neighborhood-v6,/1.0/boundary-set/la-county-neighborhoods-v6/,"{ ""city"": """", ""name"": ""West Hollywood"", ""region"": ""central-la"", ""county"": ""los-a",/1.0/boundary/west-hollywood-la-county-neighborhood-v6/
Inglewood,4074 W CENTURY BLVD,INGLEWOOD,90304,06/26/2013,90,Restaurant,33.9454398,-118.3464671,L.A. County Neighborhood (V6),inglewood,,inglewood-la-county-neighborhood-v6,/1.0/boundary-set/la-county-neighborhoods-v6/,"{ ""city"": """", ""name"": ""Inglewood"", ""region"": ""south-bay"", ""county"": ""los-angeles",/1.0/boundary/inglewood-la-county-neighborhood-v6/
Hollywood,6801 HOLLYWOOD BLVD #205,LOS ANGELES,90028,06/26/2013,90,Restaurant,34.1025925,-118.3402607,L.A. County Neighborhood (V6),hollywood,,hollywood-la-county-neighborhood-v6,/1.0/boundary-set/la-county-neighborhoods-v6/,"{ ""city"": ""los-angeles"", ""name"": ""Hollywood"", ""region"": ""central-la"", ""county"":",/1.0/boundary/hollywood-la-county-neighborhood-v6/
Inglewood,4649 W CENTURY BLVD,INGLEWOOD,90304,06/26/2013,82,Restaurant,33.9458714,-118.3586694,L.A. County Neighborhood (V6),inglewood,,inglewood-la-county-neighborhood-v6,/1.0/boundary-set/la-county-neighborhoods-v6/,"{ ""city"": """", ""name"": ""Inglewood"", ""region"": ""south-bay"", ""county"": ""los-angeles",/1.0/boundary/inglewood-la-county-neighborhood-v6/
Fairfax,7660 BEVERLY BLVD,LOS ANGELES,90036,06/26/2013,92,Restaurant,34.075322,-118.356846,L.A. County Neighborhood (V6),fairfax,,fairfax-la-county-neighborhood-v6,/1.0/boundary-set/la-county-neighborhoods-v6/,"{ ""city"": ""los-angeles"", ""name"": ""Fairfax"", ""region"": ""central-la"", ""county"": ""l",/1.0/boundary/fairfax-la-county-neighborhood-v6/
Fairfax,189 THE GROVE  DRIVE L-80,LOS ANGELES,90036,06/26/2013,90,Restaurant,34.0713424,-118.3568692,L.A. County Neighborhood (V6),fairfax,,fairfax-la-county-neighborhood-v6,/1.0/boundary-set/la-county-neighborhoods-v6/,"{ ""city"": ""los-angeles"", ""name"": ""Fairfax"", ""region"": ""central-la"", ""county"": ""l",/1.0/boundary/fairfax-la-county-neighborhood-v6/
Inglewood,3351 W CENTURY BLVD 103,INGLEWOOD,90303,06/26/2013,81,Restaurant,33.9458682,-118.3312595,L.A. County Neighborhood (V6),inglewood,,inglewood-la-county-neighborhood-v6,/1.0/boundary-set/la-county-neighborhoods-v6/,"{ ""city"": """", ""name"": ""Inglewood"", ""region"": ""south-bay"", ""county"": ""los-angeles",/1.0/boundary/inglewood-la-county-neighborhood-v6/
Covina,1069 W SAN BERNARDINO RD,COVINA,91722,06/26/2013,82,Restaurant,34.0890879,-117.911711,L.A. County Neighborhood (V6),covina,,covina-la-county-neighborhood-v6,/1.0/boundary-set/la-county-neighborhoods-v6/,"{ ""city"": """", ""name"": ""Covina"", ""region"": ""san-gabriel-valley"", ""county"": ""los-a",/1.0/boundary/covina-la-county-neighborhood-v6/
Covina,535 S CITRUS AVE,COVINA,91723,06/26/2013,93,Restaurant,34.0797149,-117.89047,L.A. County Neighborhood (V6),covina,,covina-la-county-neighborhood-v6,/1.0/boundary-set/la-county-neighborhoods-v6/,"{ ""city"": """", ""name"": ""Covina"", ""region"": ""san-gabriel-valley"", ""county"": ""los-a",/1.0/boundary/covina-la-county-neighborhood-v6/
Rowland Heights,18301 COLIMA RD,ROWLAND HEIGHTS,91748,06/26/2013,86,Restaurant,33.9888737,-117.904698,L.A. County Neighborhood (V6),rowland-heights,,rowland-heights-la-county-neighborhood-v6,/1.0/boundary-set/la-county-neighborhoods-v6/,"{ ""city"": """", ""name"": ""Rowland Heights"", ""region"": ""san-gabriel-valley"", ""county",/1.0/boundary/rowland-heights-la-county-neighborhood-v6/
Diamond Bar,233 GENTLE SPRINGS LN,DIAMOND BAR,91765,06/26/2013,92,Restaurant,34.0215354,-117.8120993,L.A. County Neighborhood (V6),diamond-bar,,diamond-bar-la-county-neighborhood-v6,/1.0/boundary-set/la-county-neighborhoods-v6/,"{ ""city"": """", ""name"": ""Diamond Bar"", ""region"": ""san-gabriel-valley"", ""county"": """,/1.0/boundary/diamond-bar-la-county-neighborhood-v6/
West Covina,110 S CALIFORNIA AVE,WEST COVINA,91790,06/26/2013,90,Restaurant,34.07125,-117.927508,L.A. County Neighborhood (V6),west-covina,,west-covina-la-county-neighborhood-v6,/1.0/boundary-set/la-county-neighborhoods-v6/,"{ ""city"": """", ""name"": ""West Covina"", ""region"": ""san-gabriel-valley"", ""county"": """,/1.0/boundary/west-covina-la-county-neighborhood-v6/
Rowland Heights,1330 S FULLERTON RD #108,CITY OF INDUSTRY,91748,06/26/2013,90,Restaurant,33.9932826,-117.9038284,L.A. County Neighborhood (V6),rowland-heights,,rowland-heights-la-county-neighborhood-v6,/1.0/boundary-set/la-county-neighborhoods-v6/,"{ ""city"": """", ""name"": ""Rowland Heights"", ""region"": ""san-gabriel-valley"", ""county",/1.0/boundary/rowland-heights-la-county-neighborhood-v6/
Pomona,1280 E HOLT AVE,POMONA,91767,06/26/2013,93,Restaurant,34.0627515,-117.7247553,L.A. County Neighborhood (V6),pomona,,pomona-la-county-neighborhood-v6,/1.0/boundary-set/la-county-neighborhoods-v6/,"{ ""city"": """", ""name"": ""Pomona"", ""region"": ""pomona-valley"", ""county"": ""los-angele",/1.0/boundary/pomona-la-county-neighborhood-v6/
Norwalk,12623 S NORWALK BLVD,NORWALK,90650,06/26/2013,93,Restaurant,33.9162629,-118.0729203,L.A. County Neighborhood (V6),norwalk,,norwalk-la-county-neighborhood-v6,/1.0/boundary-set/la-county-neighborhoods-v6/,"{ ""city"": """", ""name"": ""Norwalk"", ""region"": ""southeast"", ""county"": ""los-angeles"",",/1.0/boundary/norwalk-la-county-neighborhood-v6/
Norwalk,11543 E FIRESTONE BLVD,NORWALK,90650,06/26/2013,95,Restaurant,33.9158911,-118.0871919,L.A. County Neighborhood (V6),norwalk,,norwalk-la-county-neighborhood-v6,/1.0/boundary-set/la-county-neighborhoods-v6/,"{ ""city"": """", ""name"": ""Norwalk"", ""region"": ""southeast"", ""county"": ""los-angeles"",",/1.0/boundary/norwalk-la-county-neighborhood-v6/
Claremont,946 W FOOTHILL BLVD,CLAREMONT,91711,06/26/2013,95,Restaurant,34.1069838,-117.7309512,L.A. County Neighborhood (V6),claremont,,claremont-la-county-neighborhood-v6,/1.0/boundary-set/la-county-neighborhoods-v6/,"{ ""city"": """", ""name"": ""Claremont"", ""region"": ""pomona-valley"", ""county"": ""los-ang",/1.0/boundary/claremont-la-county-neighborhood-v6/
Rowland Heights,1743 S FULLERTON RD,ROWLAND HEIGHTS,91748,06/26/2013,98,Restaurant,33.9839042,-117.9076928,L.A. County Neighborhood (V6),rowland-heights,,rowland-heights-la-county-neighborhood-v6,/1.0/boundary-set/la-county-neighborhoods-v6/,"{ ""city"": """", ""name"": ""Rowland Heights"", ""region"": ""san-gabriel-valley"", ""county",/1.0/boundary/rowland-heights-la-county-neighborhood-v6/
Downey,7900 E IMPERIAL HWY,DOWNEY,90242,06/26/2013,97,Restaurant,33.9255989,-118.1552116,L.A. County Neighborhood (V6),downey,,downey-la-county-neighborhood-v6,/1.0/boundary-set/la-county-neighborhoods-v6/,"{ ""city"": """", ""name"": ""Downey"", ""region"": ""southeast"", ""county"": ""los-angeles"",",/1.0/boundary/downey-la-county-neighborhood-v6/
Claremont,950 W FOOTHILL BLVD,CLAREMONT,91711,06/26/2013,96,Restaurant,34.106508,-117.732641,L.A. County Neighborhood (V6),claremont,,claremont-la-county-neighborhood-v6,/1.0/boundary-set/la-county-neighborhoods-v6/,"{ ""city"": """", ""name"": ""Claremont"", ""region"": ""pomona-valley"", ""county"": ""los-ang",/1.0/boundary/claremont-la-county-neighborhood-v6/
San Dimas,903 W ARROW HWY,SAN DIMAS,91773,06/26/2013,93,Restaurant,34.1070657,-117.8247859,L.A. County Neighborhood (V6),san-dimas,,san-dimas-la-county-neighborhood-v6,/1.0/boundary-set/la-county-neighborhoods-v6/,"{ ""city"": """", ""name"": ""San Dimas"", ""region"": ""san-gabriel-valley"", ""county"": ""lo",/1.0/boundary/san-dimas-la-county-neighborhood-v6/
Industry,17501 COLIMA RD #D,CITY OF INDUSTRY,91748,06/26/2013,96,Restaurant,33.991237,-117.924763,L.A. County Neighborhood (V6),industry,,industry-la-county-neighborhood-v6,/1.0/boundary-set/la-county-neighborhoods-v6/,"{ ""city"": """", ""name"": ""Industry"", ""region"": ""san-gabriel-valley"", ""county"": ""los",/1.0/boundary/industry-la-county-neighborhood-v6/
Covina,223 N CITRUS AVE,COVINA,91723,06/26/2013,97,Restaurant,34.088157,-117.890453,L.A. County Neighborhood (V6),covina,,covina-la-county-neighborhood-v6,/1.0/boundary-set/la-county-neighborhoods-v6/,"{ ""city"": """", ""name"": ""Covina"", ""region"": ""san-gabriel-valley"", ""county"": ""los-a",/1.0/boundary/covina-la-county-neighborhood-v6/
Diamond Bar,1241 S GRAND AVE #D,DIAMOND BAR,91765,06/26/2013,96,Restaurant,33.9998319,-117.8094988,L.A. County Neighborhood (V6),diamond-bar,,diamond-bar-la-county-neighborhood-v6,/1.0/boundary-set/la-county-neighborhoods-v6/,"{ ""city"": """", ""name"": ""Diamond Bar"", ""region"": ""san-gabriel-valley"", ""county"": """,/1.0/boundary/diamond-bar-la-county-neighborhood-v6/
West Covina,2761 LA PUENTE RD,WEST COVINA,91792,06/26/2013,95,Restaurant,34.011942,-117.8789354,L.A. County Neighborhood (V6),west-covina,,west-covina-la-county-neighborhood-v6,/1.0/boundary-set/la-county-neighborhoods-v6/,"{ ""city"": """", ""name"": ""West Covina"", ""region"": ""san-gabriel-valley"", ""county"": """,/1.0/boundary/west-covina-la-county-neighborhood-v6/
Valley Village,12450 BURBANK BLVD #B,VALLEY VILLAGE,91607,06/26/2013,92,Restaurant,34.1717478,-118.4045883,L.A. County Neighborhood (V6),valley-village,,valley-village-la-county-neighborhood-v6,/1.0/boundary-set/la-county-neighborhoods-v6/,"{ ""city"": ""los-angeles"", ""name"": ""Valley Village"", ""region"": ""san-fernando-valle",/1.0/boundary/valley-village-la-county-neighborhood-v6/
Van Nuys,14445 SHERMAN WY,VAN NUYS,91405,06/26/2013,99,Restaurant,34.2014537,-118.4478036,L.A. County Neighborhood (V6),van-nuys,,van-nuys-la-county-neighborhood-v6,/1.0/boundary-set/la-county-neighborhoods-v6/,"{ ""city"": ""los-angeles"", ""name"": ""Van Nuys"", ""region"": ""san-fernando-valley"", ""c",/1.0/boundary/van-nuys-la-county-neighborhood-v6/
Van Nuys,6569 VAN NUYS BLVD,VAN NUYS,91401,06/26/2013,94,Restaurant,34.1904122,-118.4493523,L.A. County Neighborhood (V6),van-nuys,,van-nuys-la-county-neighborhood-v6,/1.0/boundary-set/la-county-neighborhoods-v6/,"{ ""city"": ""los-angeles"", ""name"": ""Van Nuys"", ""region"": ""san-fernando-valley"", ""c",/1.0/boundary/van-nuys-la-county-neighborhood-v6/
Van Nuys,7400 VAN NUYS BLVD #104,VAN NUYS,91405,06/26/2013,97,Restaurant,34.2057188,-118.4481892,L.A. County Neighborhood (V6),van-nuys,,van-nuys-la-county-neighborhood-v6,/1.0/boundary-set/la-county-neighborhoods-v6/,"{ ""city"": ""los-angeles"", ""name"": ""Van Nuys"", ""region"": ""san-fernando-valley"", ""c",/1.0/boundary/van-nuys-la-county-neighborhood-v6/
Downey,193 STONEWOOD ST #A39,DOWNEY,90241,06/26/2013,96,Restaurant,33.938355,-118.1210425,L.A. County Neighborhood (V6),downey,,downey-la-county-neighborhood-v6,/1.0/boundary-set/la-county-neighborhoods-v6/,"{ ""city"": """", ""name"": ""Downey"", ""region"": ""southeast"", ""county"": ""los-angeles"",",/1.0/boundary/downey-la-county-neighborhood-v6/
Mar Vista,11700 VENICE BLVD,LOS ANGELES,90066,06/26/2013,93,Restaurant,34.008246,-118.424597,L.A. County Neighborhood (V6),mar-vista,,mar-vista-la-county-neighborhood-v6,/1.0/boundary-set/la-county-neighborhoods-v6/,"{ ""city"": ""los-angeles"", ""name"": ""Mar Vista"", ""region"": ""westside"", ""county"": ""l",/1.0/boundary/mar-vista-la-county-neighborhood-v6/
Lancaster,1063 E AVENUE J #103,LANCASTER,93535,06/26/2013,97,Restaurant,34.6897856,-118.110553,L.A. County Neighborhood (V6),lancaster,,lancaster-la-county-neighborhood-v6,/1.0/boundary-set/la-county-neighborhoods-v6/,"{ ""city"": """", ""name"": ""Lancaster"", ""region"": ""antelope-valley"", ""county"": ""los-a",/1.0/boundary/lancaster-la-county-neighborhood-v6/
Palmdale,1233 W RANCHO VISTA BLVD #811,PALMDALE,93551,06/26/2013,99,Restaurant,34.6038194,-118.1520136,L.A. County Neighborhood (V6),palmdale,,palmdale-la-county-neighborhood-v6,/1.0/boundary-set/la-county-neighborhoods-v6/,"{ ""city"": """", ""name"": ""Palmdale"", ""region"": ""antelope-valley"", ""county"": ""los-an",/1.0/boundary/palmdale-la-county-neighborhood-v6/
Lancaster,320 W AVENUE J2,LANCASTER,93534,06/26/2013,98,Restaurant,34.6812443,-118.1364327,L.A. County Neighborhood (V6),lancaster,,lancaster-la-county-neighborhood-v6,/1.0/boundary-set/la-county-neighborhoods-v6/,"{ ""city"": """", ""name"": ""Lancaster"", ""region"": ""antelope-valley"", ""county"": ""los-a",/1.0/boundary/lancaster-la-county-neighborhood-v6/
Westlake Village,05795 LINDERO CANYON RD,WESTLAKE VILLAGE,91362,06/26/2013,95,Restaurant,34.1540576,-118.7969941,L.A. County Neighborhood (V6),westlake-village,,westlake-village-la-county-neighborhood-v6,/1.0/boundary-set/la-county-neighborhoods-v6/,"{ ""city"": """", ""name"": ""Westlake Village"", ""region"": ""santa-monica-mountains"", ""c",/1.0/boundary/westlake-village-la-county-neighborhood-v6/
Boyle Heights,1300 SOTO ST #9,LOS ANGELES,90023,06/26/2013,100,Restaurant,34.026096,-118.219257,L.A. County Neighborhood (V6),boyle-heights,,boyle-heights-la-county-neighborhood-v6,/1.0/boundary-set/la-county-neighborhoods-v6/,"{ ""city"": ""los-angeles"", ""name"": ""Boyle Heights"", ""region"": ""eastside"", ""county""",/1.0/boundary/boyle-heights-la-county-neighborhood-v6/
Sylmar,12780 SAN FERNANDO RD,SYLMAR,91342,06/26/2013,94,Restaurant,34.302635,-118.4624206,L.A. County Neighborhood (V6),sylmar,,sylmar-la-county-neighborhood-v6,/1.0/boundary-set/la-county-neighborhoods-v6/,"{ ""city"": ""los-angeles"", ""name"": ""Sylmar"", ""region"": ""san-fernando-valley"", ""cou",/1.0/boundary/sylmar-la-county-neighborhood-v6/
Historic South-Central,2215 S CENTRAL AVE,LOS ANGELES,90011,06/26/2013,91,Restaurant,34.0216959,-118.2530732,L.A. County Neighborhood (V6),historic-south-central,,historic-south-central-la-county-neighborhood-v6,/1.0/boundary-set/la-county-neighborhoods-v6/,"{ ""city"": ""los-angeles"", ""name"": ""Historic South-Central"", ""region"": ""south-la"",",/1.0/boundary/historic-south-central-la-county-neighborhood-v6/
Pico-Union,1325 W VENICE BLVD #A,LOS ANGELES,90006,06/26/2013,98,Restaurant,34.043328,-118.282496,L.A. County Neighborhood (V6),pico-union,,pico-union-la-county-neighborhood-v6,/1.0/boundary-set/la-county-neighborhoods-v6/,"{ ""city"": ""los-angeles"", ""name"": ""Pico-Union"", ""region"": ""central-la"", ""county"":",/1.0/boundary/pico-union-la-county-neighborhood-v6/
Alhambra,640 W VALLEY BLVD #A,ALHAMBRA,91803,06/26/2013,90,Restaurant,34.0778729,-118.130361,L.A. County Neighborhood (V6),alhambra,,alhambra-la-county-neighborhood-v6,/1.0/boundary-set/la-county-neighborhoods-v6/,"{ ""city"": """", ""name"": ""Alhambra"", ""region"": ""san-gabriel-valley"", ""county"": ""los",/1.0/boundary/alhambra-la-county-neighborhood-v6/
Boyle Heights,1260 S SOTO ST #12,LOS ANGELES,90023,06/26/2013,93,Restaurant,34.0263406,-118.2193922,L.A. County Neighborhood (V6),boyle-heights,,boyle-heights-la-county-neighborhood-v6,/1.0/boundary-set/la-county-neighborhoods-v6/,"{ ""city"": ""los-angeles"", ""name"": ""Boyle Heights"", ""region"": ""eastside"", ""county""",/1.0/boundary/boyle-heights-la-county-neighborhood-v6/
Montebello,1416 W BEVERLY BLVD,MONTEBELLO,90640,06/26/2013,100,Restaurant,34.018961,-118.113372,L.A. County Neighborhood (V6),montebello,,montebello-la-county-neighborhood-v6,/1.0/boundary-set/la-county-neighborhoods-v6/,"{ ""city"": """", ""name"": ""Montebello"", ""region"": ""southeast"", ""county"": ""los-angele",/1.0/boundary/montebello-la-county-neighborhood-v6/
Glendale,317 N BRAND BLVD,GLENDALE,91203,06/26/2013,92,Restaurant,34.150615,-118.255473,L.A. County Neighborhood (V6),glendale,,glendale-la-county-neighborhood-v6,/1.0/boundary-set/la-county-neighborhoods-v6/,"{ ""city"": """", ""name"": ""Glendale"", ""region"": ""verdugos"", ""county"": ""los-angeles"",",/1.0/boundary/glendale-la-county-neighborhood-v6/
North Hollywood,10825 OXNARD ST,NORTH HOLLYWOOD,91606,06/26/2013,96,Restaurant,34.1795797,-118.367043,L.A. County Neighborhood (V6),north-hollywood,,north-hollywood-la-county-neighborhood-v6,/1.0/boundary-set/la-county-neighborhoods-v6/,"{ ""city"": ""los-angeles"", ""name"": ""North Hollywood"", ""region"": ""san-fernando-vall",/1.0/boundary/north-hollywood-la-county-neighborhood-v6/
West Hollywood,945 N FAIRFAX AVE,WEST HOLLYWOOD,90046,06/26/2013,94,Restaurant,34.0885636,-118.3616248,L.A. County Neighborhood (V6),west-hollywood,,west-hollywood-la-county-neighborhood-v6,/1.0/boundary-set/la-county-neighborhoods-v6/,"{ ""city"": """", ""name"": ""West Hollywood"", ""region"": ""central-la"", ""county"": ""los-a",/1.0/boundary/west-hollywood-la-county-neighborhood-v6/
Woodland Hills,22730 VICTORY BLVD,WOODLAND HILLS,91364,06/26/2013,91,Restaurant,34.1863112,-118.6222792,L.A. County Neighborhood (V6),woodland-hills,,woodland-hills-la-county-neighborhood-v6,/1.0/boundary-set/la-county-neighborhoods-v6/,"{ ""city"": ""los-angeles"", ""name"": ""Woodland Hills"", ""region"": ""san-fernando-valle",/1.0/boundary/woodland-hills-la-county-neighborhood-v6/
Santa Monica,2635 LINCOLN BLVD,SANTA MONICA,90405,06/26/2013,98,Restaurant,34.0065628,-118.475813,L.A. County Neighborhood (V6),santa-monica,,santa-monica-la-county-neighborhood-v6,/1.0/boundary-set/la-county-neighborhoods-v6/,"{ ""city"": """", ""name"": ""Santa Monica"", ""region"": ""westside"", ""county"": ""los-angel",/1.0/boundary/santa-monica-la-county-neighborhood-v6/
Malibu,22716 PACIFIC COAST HWY,MALIBU,90265,06/26/2013,95,Restaurant,34.038986,-118.670436,L.A. County Neighborhood (V6),malibu,,malibu-la-county-neighborhood-v6,/1.0/boundary-set/la-county-neighborhoods-v6/,"{ ""city"": """", ""name"": ""Malibu"", ""region"": ""santa-monica-mountains"", ""county"": ""l",/1.0/boundary/malibu-la-county-neighborhood-v6/
Lake Balboa,16935 VANOWEN ST #G,VAN NUYS,91406,06/26/2013,90,Restaurant,34.1943062,-118.5025487,L.A. County Neighborhood (V6),lake-balboa,,lake-balboa-la-county-neighborhood-v6,/1.0/boundary-set/la-county-neighborhoods-v6/,"{ ""city"": ""los-angeles"", ""name"": ""Lake Balboa"", ""region"": ""san-fernando-valley"",",/1.0/boundary/lake-balboa-la-county-neighborhood-v6/
Northridge,19500 PLUMMER ST,NORTHRIDGE,91324,06/26/2013,90,Restaurant,34.2419272,-118.5588553,L.A. County Neighborhood (V6),northridge,,northridge-la-county-neighborhood-v6,/1.0/boundary-set/la-county-neighborhoods-v6/,"{ ""city"": ""los-angeles"", ""name"": ""Northridge"", ""region"": ""san-fernando-valley"",",/1.0/boundary/northridge-la-county-neighborhood-v6/
Woodland Hills,6040 CANOGA AVE,WOODLAND HILLS,91367,06/26/2013,100,Restaurant,34.180498,-118.596973,L.A. County Neighborhood (V6),woodland-hills,,woodland-hills-la-county-neighborhood-v6,/1.0/boundary-set/la-county-neighborhoods-v6/,"{ ""city"": ""los-angeles"", ""name"": ""Woodland Hills"", ""region"": ""san-fernando-valle",/1.0/boundary/woodland-hills-la-county-neighborhood-v6/
Reseda,6747 TAMPA AVE,RESEDA,91335,06/26/2013,92,Restaurant,34.1933561,-118.5537369,L.A. County Neighborhood (V6),reseda,,reseda-la-county-neighborhood-v6,/1.0/boundary-set/la-county-neighborhoods-v6/,"{ ""city"": ""los-angeles"", ""name"": ""Reseda"", ""region"": ""san-fernando-valley"", ""cou",/1.0/boundary/reseda-la-county-neighborhood-v6/
Beverly Grove,100 N LA CIENEGA BLVD 120,LOS ANGELES,90048,06/25/2013,95,Restaurant,34.0742131,-118.3755756,L.A. County Neighborhood (V6),beverly-grove,,beverly-grove-la-county-neighborhood-v6,/1.0/boundary-set/la-county-neighborhoods-v6/,"{ ""city"": ""los-angeles"", ""name"": ""Beverly Grove"", ""region"": ""central-la"", ""count",/1.0/boundary/beverly-grove-la-county-neighborhood-v6/
Gardena,1755 ARTESIA BLVD,GARDENA,90248,06/25/2013,94,Restaurant,33.872944,-118.308701,L.A. County Neighborhood (V6),gardena,,gardena-la-county-neighborhood-v6,/1.0/boundary-set/la-county-neighborhoods-v6/,"{ ""city"": """", ""name"": ""Gardena"", ""region"": ""south-bay"", ""county"": ""los-angeles"",",/1.0/boundary/gardena-la-county-neighborhood-v6/
Gardena,1530 W ARTESIA BLVD,GARDENA,90248,06/25/2013,90,Restaurant,33.8729132,-118.3035978,L.A. County Neighborhood (V6),gardena,,gardena-la-county-neighborhood-v6,/1.0/boundary-set/la-county-neighborhoods-v6/,"{ ""city"": """", ""name"": ""Gardena"", ""region"": ""south-bay"", ""county"": ""los-angeles"",",/1.0/boundary/gardena-la-county-neighborhood-v6/
Hyde Park,3016 W FLORENCE AVE,LOS ANGELES,90043,06/25/2013,91,Restaurant,33.9742394,-118.3261664,L.A. County Neighborhood (V6),hyde-park,,hyde-park-la-county-neighborhood-v6,/1.0/boundary-set/la-county-neighborhoods-v6/,"{ ""city"": ""los-angeles"", ""name"": ""Hyde Park"", ""region"": ""south-la"", ""county"": ""l",/1.0/boundary/hyde-park-la-county-neighborhood-v6/
Fairfax,189 THE GROVE DR K-30,LOS ANGELES,90036,06/25/2013,95,Restaurant,34.0713424,-118.3568692,L.A. County Neighborhood (V6),fairfax,,fairfax-la-county-neighborhood-v6,/1.0/boundary-set/la-county-neighborhoods-v6/,"{ ""city"": ""los-angeles"", ""name"": ""Fairfax"", ""region"": ""central-la"", ""county"": ""l",/1.0/boundary/fairfax-la-county-neighborhood-v6/
Chesterfield Square,1890 W SLAUSON AVE,LOS ANGELES,90047,06/25/2013,96,Restaurant,33.988836,-118.311011,L.A. County Neighborhood (V6),chesterfield-square,,chesterfield-square-la-county-neighborhood-v6,/1.0/boundary-set/la-county-neighborhoods-v6/,"{ ""city"": ""los-angeles"", ""name"": ""Chesterfield Square"", ""region"": ""south-la"", ""c",/1.0/boundary/chesterfield-square-la-county-neighborhood-v6/
Beverly Crest,2922 BEVERLY GLEN CIR,LOS ANGELES,90077,06/25/2013,96,Restaurant,34.1272116,-118.4444755,L.A. County Neighborhood (V6),beverly-crest,,beverly-crest-la-county-neighborhood-v6,/1.0/boundary-set/la-county-neighborhoods-v6/,"{ ""city"": ""los-angeles"", ""name"": ""Beverly Crest"", ""region"": ""westside"", ""county""",/1.0/boundary/beverly-crest-la-county-neighborhood-v6/
Lawndale,15333 HAWTHORNE BLVD,LAWNDALE,90260,06/25/2013,90,Restaurant,33.8913362,-118.3527321,L.A. County Neighborhood (V6),lawndale,,lawndale-la-county-neighborhood-v6,/1.0/boundary-set/la-county-neighborhoods-v6/,"{ ""city"": """", ""name"": ""Lawndale"", ""region"": ""south-bay"", ""county"": ""los-angeles""",/1.0/boundary/lawndale-la-county-neighborhood-v6/
Inglewood,115 E ARBOR VITAE ST,INGLEWOOD,90301,06/25/2013,90,Restaurant,33.9529976,-118.3541482,L.A. County Neighborhood (V6),inglewood,,inglewood-la-county-neighborhood-v6,/1.0/boundary-set/la-county-neighborhoods-v6/,"{ ""city"": """", ""name"": ""Inglewood"", ""region"": ""south-bay"", ""county"": ""los-angeles",/1.0/boundary/inglewood-la-county-neighborhood-v6/
Hyde Park,2220 W SLAUSON AVE,LOS ANGELES,90043,06/25/2013,93,Restaurant,33.9888615,-118.3182961,L.A. County Neighborhood (V6),hyde-park,,hyde-park-la-county-neighborhood-v6,/1.0/boundary-set/la-county-neighborhoods-v6/,"{ ""city"": ""los-angeles"", ""name"": ""Hyde Park"", ""region"": ""south-la"", ""county"": ""l",/1.0/boundary/hyde-park-la-county-neighborhood-v6/
Diamond Bar,2841 DIAMOND BAR BLVD #C,DIAMOND BAR,91765,06/25/2013,97,Restaurant,33.974469,-117.8377811,L.A. County Neighborhood (V6),diamond-bar,,diamond-bar-la-county-neighborhood-v6,/1.0/boundary-set/la-county-neighborhoods-v6/,"{ ""city"": """", ""name"": ""Diamond Bar"", ""region"": ""san-gabriel-valley"", ""county"": """,/1.0/boundary/diamond-bar-la-county-neighborhood-v6/
West Covina,9224 PLAZA DR,WEST COVINA,91790,06/25/2013,95,Restaurant,34.0701278,-117.9359952,L.A. County Neighborhood (V6),west-covina,,west-covina-la-county-neighborhood-v6,/1.0/boundary-set/la-county-neighborhoods-v6/,"{ ""city"": """", ""name"": ""West Covina"", ""region"": ""san-gabriel-valley"", ""county"": """,/1.0/boundary/west-covina-la-county-neighborhood-v6/
Industry,17865 COLIMA RD.,CITY OF INDUSTRY,91748,06/25/2013,93,Restaurant,33.9902006,-117.9159609,L.A. County Neighborhood (V6),industry,,industry-la-county-neighborhood-v6,/1.0/boundary-set/la-county-neighborhoods-v6/,"{ ""city"": """", ""name"": ""Industry"", ""region"": ""san-gabriel-valley"", ""county"": ""los",/1.0/boundary/industry-la-county-neighborhood-v6/
Claremont,333 W BONITA AVE,CLAREMONT,91711,06/25/2013,98,Restaurant,34.0966363,-117.7183409,L.A. County Neighborhood (V6),claremont,,claremont-la-county-neighborhood-v6,/1.0/boundary-set/la-county-neighborhoods-v6/,"{ ""city"": """", ""name"": ""Claremont"", ""region"": ""pomona-valley"", ""county"": ""los-ang",/1.0/boundary/claremont-la-county-neighborhood-v6/
Claremont,363 W BONITA AVE,CLAREMONT,91711,06/25/2013,91,Restaurant,34.0966361,-117.7186668,L.A. County Neighborhood (V6),claremont,,claremont-la-county-neighborhood-v6,/1.0/boundary-set/la-county-neighborhoods-v6/,"{ ""city"": """", ""name"": ""Claremont"", ""region"": ""pomona-valley"", ""county"": ""los-ang",/1.0/boundary/claremont-la-county-neighborhood-v6/
Industry,1560 ALBATROSS RD,CITY OF INDUSTRY,91748,06/25/2013,96,Restaurant,33.99336,-117.923595,L.A. County Neighborhood (V6),industry,,industry-la-county-neighborhood-v6,/1.0/boundary-set/la-county-neighborhoods-v6/,"{ ""city"": """", ""name"": ""Industry"", ""region"": ""san-gabriel-valley"", ""county"": ""los",/1.0/boundary/industry-la-county-neighborhood-v6/
West Covina,1455 PLAZA DR,WEST COVINA,91790,06/25/2013,98,Restaurant,34.0698104,-117.9268852,L.A. County Neighborhood (V6),west-covina,,west-covina-la-county-neighborhood-v6,/1.0/boundary-set/la-county-neighborhoods-v6/,"{ ""city"": """", ""name"": ""West Covina"", ""region"": ""san-gabriel-valley"", ""county"": """,/1.0/boundary/west-covina-la-county-neighborhood-v6/
San Dimas,662 W ARROW HWY,SAN DIMAS,91773,06/25/2013,95,Restaurant,34.1054763,-117.8188774,L.A. County Neighborhood (V6),san-dimas,,san-dimas-la-county-neighborhood-v6,/1.0/boundary-set/la-county-neighborhoods-v6/,"{ ""city"": """", ""name"": ""San Dimas"", ""region"": ""san-gabriel-valley"", ""county"": ""lo",/1.0/boundary/san-dimas-la-county-neighborhood-v6/
West Covina,821 PLAZA DR,WEST COVINA,91790,06/25/2013,90,Restaurant,34.0698976,-117.9275847,L.A. County Neighborhood (V6),west-covina,,west-covina-la-county-neighborhood-v6,/1.0/boundary-set/la-county-neighborhoods-v6/,"{ ""city"": """", ""name"": ""West Covina"", ""region"": ""san-gabriel-valley"", ""county"": """,/1.0/boundary/west-covina-la-county-neighborhood-v6/
West Covina,120 S CALIFORNIA ST,WEST COVINA,91790,06/25/2013,87,Restaurant,34.0710099,-117.9272281,L.A. County Neighborhood (V6),west-covina,,west-covina-la-county-neighborhood-v6,/1.0/boundary-set/la-county-neighborhoods-v6/,"{ ""city"": """", ""name"": ""West Covina"", ""region"": ""san-gabriel-valley"", ""county"": """,/1.0/boundary/west-covina-la-county-neighborhood-v6/
West Covina,1019 S GLENDORA AVE,WEST COVINA,91790,06/25/2013,91,Restaurant,34.0573055,-117.936584,L.A. County Neighborhood (V6),west-covina,,west-covina-la-county-neighborhood-v6,/1.0/boundary-set/la-county-neighborhoods-v6/,"{ ""city"": """", ""name"": ""West Covina"", ""region"": ""san-gabriel-valley"", ""county"": """,/1.0/boundary/west-covina-la-county-neighborhood-v6/
Claremont,353 W BONITA AVE,CLAREMONT,91711,06/25/2013,95,Restaurant,34.0966358,-117.7185961,L.A. County Neighborhood (V6),claremont,,claremont-la-county-neighborhood-v6,/1.0/boundary-set/la-county-neighborhoods-v6/,"{ ""city"": """", ""name"": ""Claremont"", ""region"": ""pomona-valley"", ""county"": ""los-ang",/1.0/boundary/claremont-la-county-neighborhood-v6/
Diamond Bar,2803 S DIAMOND BAR BLVD,DIAMOND BAR,91765,06/25/2013,87,Restaurant,33.9745059,-117.8374397,L.A. County Neighborhood (V6),diamond-bar,,diamond-bar-la-county-neighborhood-v6,/1.0/boundary-set/la-county-neighborhoods-v6/,"{ ""city"": """", ""name"": ""Diamond Bar"", ""region"": ""san-gabriel-valley"", ""county"": """,/1.0/boundary/diamond-bar-la-county-neighborhood-v6/
Rowland Heights,17515 COLIMA RD #A,CITY OF INDUSTRY,91748,06/25/2013,96,Restaurant,33.9883658,-117.9075089,L.A. County Neighborhood (V6),rowland-heights,,rowland-heights-la-county-neighborhood-v6,/1.0/boundary-set/la-county-neighborhoods-v6/,"{ ""city"": """", ""name"": ""Rowland Heights"", ""region"": ""san-gabriel-valley"", ""county",/1.0/boundary/rowland-heights-la-county-neighborhood-v6/
Norwalk,12253 E IMPERIAL HWY,NORWALK,90650,06/25/2013,93,Restaurant,33.9172029,-118.0715092,L.A. County Neighborhood (V6),norwalk,,norwalk-la-county-neighborhood-v6,/1.0/boundary-set/la-county-neighborhoods-v6/,"{ ""city"": """", ""name"": ""Norwalk"", ""region"": ""southeast"", ""county"": ""los-angeles"",",/1.0/boundary/norwalk-la-county-neighborhood-v6/
North Hills,9040 SEPULVEDA BLVD,NORTH HILLS,91343,06/25/2013,98,Restaurant,34.2345314,-118.4674652,L.A. County Neighborhood (V6),north-hills,,north-hills-la-county-neighborhood-v6,/1.0/boundary-set/la-county-neighborhoods-v6/,"{ ""city"": ""los-angeles"", ""name"": ""North Hills"", ""region"": ""san-fernando-valley"",",/1.0/boundary/north-hills-la-county-neighborhood-v6/
Panorama City,8610 VAN NUYS BLVD 1007,PANORAMA CITY,91402,06/25/2013,94,Restaurant,34.226628,-118.4494846,L.A. County Neighborhood (V6),panorama-city,,panorama-city-la-county-neighborhood-v6,/1.0/boundary-set/la-county-neighborhoods-v6/,"{ ""city"": ""los-angeles"", ""name"": ""Panorama City"", ""region"": ""san-fernando-valley",/1.0/boundary/panorama-city-la-county-neighborhood-v6/
Palmdale,832 1/2 E AVE Q-6,PALMDALE,93550,06/25/2013,92,Restaurant,34.5815505,-118.1146196,L.A. County Neighborhood (V6),palmdale,,palmdale-la-county-neighborhood-v6,/1.0/boundary-set/la-county-neighborhoods-v6/,"{ ""city"": """", ""name"": ""Palmdale"", ""region"": ""antelope-valley"", ""county"": ""los-an",/1.0/boundary/palmdale-la-county-neighborhood-v6/
South Gate,5871 FIRESTONE BLVD,SOUTH GATE,90280,06/25/2013,95,Restaurant,33.9488695,-118.1620139,L.A. County Neighborhood (V6),south-gate,,south-gate-la-county-neighborhood-v6,/1.0/boundary-set/la-county-neighborhoods-v6/,"{ ""city"": """", ""name"": ""South Gate"", ""region"": ""southeast"", ""county"": ""los-angele",/1.0/boundary/south-gate-la-county-neighborhood-v6/
Unincorporated Santa Susana Mountains,24737 W PICO CANYON RD,VALENCIA,91355,06/25/2013,97,Restaurant,34.3801564,-118.5678213,L.A. County Neighborhood (V6),unincorporated-santa-susana-mountains,,unincorporated-santa-susana-mountains-la-county-neighborhood-v6,/1.0/boundary-set/la-county-neighborhoods-v6/,"{ ""city"": """", ""name"": ""Unincorporated Santa Susana Mountains"", ""region"": ""northw",/1.0/boundary/unincorporated-santa-susana-mountains-la-county-neighborhood-v6/
South Gate,5871 FIRESTONE BLVD,SOUTH GATE,90280,06/25/2013,100,Restaurant,33.9488695,-118.1620139,L.A. County Neighborhood (V6),south-gate,,south-gate-la-county-neighborhood-v6,/1.0/boundary-set/la-county-neighborhoods-v6/,"{ ""city"": """", ""name"": ""South Gate"", ""region"": ""southeast"", ""county"": ""los-angele",/1.0/boundary/south-gate-la-county-neighborhood-v6/
Lancaster,740 W AVE K,LANCASTER,93534,06/25/2013,93,Restaurant,34.6748625,-118.1453889,L.A. County Neighborhood (V6),lancaster,,lancaster-la-county-neighborhood-v6,/1.0/boundary-set/la-county-neighborhoods-v6/,"{ ""city"": """", ""name"": ""Lancaster"", ""region"": ""antelope-valley"", ""county"": ""los-a",/1.0/boundary/lancaster-la-county-neighborhood-v6/
Harbor Gateway,1525 W SEPULVEDA BLVD,TORRANCE,90501,06/25/2013,100,Restaurant,33.8157707,-118.3046423,L.A. County Neighborhood (V6),harbor-gateway,,harbor-gateway-la-county-neighborhood-v6,/1.0/boundary-set/la-county-neighborhoods-v6/,"{ ""city"": ""los-angeles"", ""name"": ""Harbor Gateway"", ""region"": ""harbor"", ""county"":",/1.0/boundary/harbor-gateway-la-county-neighborhood-v6/
Lancaster,740 W AVE K,LANCASTER,93534,06/25/2013,92,Restaurant,34.6748625,-118.1453889,L.A. County Neighborhood (V6),lancaster,,lancaster-la-county-neighborhood-v6,/1.0/boundary-set/la-county-neighborhoods-v6/,"{ ""city"": """", ""name"": ""Lancaster"", ""region"": ""antelope-valley"", ""county"": ""los-a",/1.0/boundary/lancaster-la-county-neighborhood-v6/
West Carson,1175 W CARSON ST,TORRANCE,90502,06/25/2013,94,Restaurant,33.8315776,-118.2969754,L.A. County Neighborhood (V6),west-carson,,west-carson-la-county-neighborhood-v6,/1.0/boundary-set/la-county-neighborhoods-v6/,"{ ""city"": """", ""name"": ""West Carson"", ""region"": ""harbor"", ""county"": ""los-angeles""",/1.0/boundary/west-carson-la-county-neighborhood-v6/
Castaic Canyons,20850 CENTER POINT PARKWAY,CANYON COUNTRY,91351,06/25/2013,99,Restaurant,34.4384112,-118.4571974,L.A. County Neighborhood (V6),castaic-canyons,,castaic-canyons-la-county-neighborhood-v6,/1.0/boundary-set/la-county-neighborhoods-v6/,"{ ""city"": """", ""name"": ""Castaic Canyons"", ""region"": ""northwest-county"", ""county"":",/1.0/boundary/castaic-canyons-la-county-neighborhood-v6/
Unincorporated Santa Susana Mountains,25900 THE OLD ROAD,VALENCIA,91381,06/25/2013,99,Restaurant,34.3915514,-118.5737678,L.A. County Neighborhood (V6),unincorporated-santa-susana-mountains,,unincorporated-santa-susana-mountains-la-county-neighborhood-v6,/1.0/boundary-set/la-county-neighborhoods-v6/,"{ ""city"": """", ""name"": ""Unincorporated Santa Susana Mountains"", ""region"": ""northw",/1.0/boundary/unincorporated-santa-susana-mountains-la-county-neighborhood-v6/
Castaic Canyons,19435 SOLEDAD CYN RD,CANYON COUNTRY,91351,06/25/2013,99,Restaurant,34.45129,-118.426511,L.A. County Neighborhood (V6),castaic-canyons,,castaic-canyons-la-county-neighborhood-v6,/1.0/boundary-set/la-county-neighborhoods-v6/,"{ ""city"": """", ""name"": ""Castaic Canyons"", ""region"": ""northwest-county"", ""county"":",/1.0/boundary/castaic-canyons-la-county-neighborhood-v6/
East Los Angeles,3900 E OLYMPIC BLVD,LOS ANGELES,90023,06/25/2013,94,Restaurant,34.0186457,-118.1920478,L.A. County Neighborhood (V6),east-los-angeles,,east-los-angeles-la-county-neighborhood-v6,/1.0/boundary-set/la-county-neighborhoods-v6/,"{ ""city"": """", ""name"": ""East Los Angeles"", ""region"": ""eastside"", ""county"": ""los-a",/1.0/boundary/east-los-angeles-la-county-neighborhood-v6/
Westchester,6701 W IMPERIAL HWY,LOS ANGELES,90045,06/25/2013,90,Restaurant,33.9320742,-118.4076936,L.A. County Neighborhood (V6),westchester,,westchester-la-county-neighborhood-v6,/1.0/boundary-set/la-county-neighborhoods-v6/,"{ ""city"": ""los-angeles"", ""name"": ""Westchester"", ""region"": ""south-bay"", ""county"":",/1.0/boundary/westchester-la-county-neighborhood-v6/
West Adams,3022 COCHRAN AVE,LOS ANGELES,90016,06/25/2013,93,Restaurant,34.025856,-118.360862,L.A. County Neighborhood (V6),west-adams,,west-adams-la-county-neighborhood-v6,/1.0/boundary-set/la-county-neighborhoods-v6/,"{ ""city"": ""los-angeles"", ""name"": ""West Adams"", ""region"": ""south-la"", ""county"": """,/1.0/boundary/west-adams-la-county-neighborhood-v6/
Pico-Union,2346 W PICO BLVD,LOS ANGELES,90006,06/25/2013,86,Restaurant,34.0471675,-118.2880655,L.A. County Neighborhood (V6),pico-union,,pico-union-la-county-neighborhood-v6,/1.0/boundary-set/la-county-neighborhoods-v6/,"{ ""city"": ""los-angeles"", ""name"": ""Pico-Union"", ""region"": ""central-la"", ""county"":",/1.0/boundary/pico-union-la-county-neighborhood-v6/
Central-Alameda,2528 S CENTRAL AVE,LOS ANGELES,90011,06/25/2013,92,Restaurant,34.01887,-118.254481,L.A. County Neighborhood (V6),central-alameda,,central-alameda-la-county-neighborhood-v6,/1.0/boundary-set/la-county-neighborhoods-v6/,"{ ""city"": ""los-angeles"", ""name"": ""Central-Alameda"", ""region"": ""south-la"", ""count",/1.0/boundary/central-alameda-la-county-neighborhood-v6/
Downtown,117 E WINSTON ST 104,LOS ANGELES,90013,06/25/2013,98,Restaurant,34.047149,-118.247075,L.A. County Neighborhood (V6),downtown,,downtown-la-county-neighborhood-v6,/1.0/boundary-set/la-county-neighborhoods-v6/,"{ ""city"": ""los-angeles"", ""name"": ""Downtown"", ""region"": ""central-la"", ""county"": """,/1.0/boundary/downtown-la-county-neighborhood-v6/
Santa Clarita,25200 W RYE CANYON RD,SANTA CLARITA,91355,06/25/2013,90,Restaurant,34.439117,-118.575103,L.A. County Neighborhood (V6),santa-clarita,,santa-clarita-la-county-neighborhood-v6,/1.0/boundary-set/la-county-neighborhoods-v6/,"{ ""city"": """", ""name"": ""Santa Clarita"", ""region"": ""northwest-county"", ""county"": """,/1.0/boundary/santa-clarita-la-county-neighborhood-v6/
Glendale,1524 E COLORADO ST,GLENDALE,91205,06/25/2013,97,Restaurant,34.1424711,-118.230553,L.A. County Neighborhood (V6),glendale,,glendale-la-county-neighborhood-v6,/1.0/boundary-set/la-county-neighborhoods-v6/,"{ ""city"": """", ""name"": ""Glendale"", ""region"": ""verdugos"", ""county"": ""los-angeles"",",/1.0/boundary/glendale-la-county-neighborhood-v6/
Burbank,2600 W VICTORY BLVD,BURBANK,91505,06/25/2013,96,Restaurant,34.183631,-118.339557,L.A. County Neighborhood (V6),burbank,,burbank-la-county-neighborhood-v6,/1.0/boundary-set/la-county-neighborhoods-v6/,"{ ""city"": """", ""name"": ""Burbank"", ""region"": ""san-fernando-valley"", ""county"": ""los",/1.0/boundary/burbank-la-county-neighborhood-v6/
Burbank,2600 W VICTORY BLVD,BURBANK,91505,06/25/2013,97,Restaurant,34.183631,-118.339557,L.A. County Neighborhood (V6),burbank,,burbank-la-county-neighborhood-v6,/1.0/boundary-set/la-county-neighborhoods-v6/,"{ ""city"": """", ""name"": ""Burbank"", ""region"": ""san-fernando-valley"", ""county"": ""los",/1.0/boundary/burbank-la-county-neighborhood-v6/
Glendale,"1022 E CHEVY CHASE DR A&B;",GLENDALE,91205,06/25/2013,97,Restaurant,34.1337367,-118.2468148,L.A. County Neighborhood (V6),glendale,,glendale-la-county-neighborhood-v6,/1.0/boundary-set/la-county-neighborhoods-v6/,"{ ""city"": """", ""name"": ""Glendale"", ""region"": ""verdugos"", ""county"": ""los-angeles"",",/1.0/boundary/glendale-la-county-neighborhood-v6/
Glendale,702 AMERICANA WAY,GLENDALE,91210,06/25/2013,94,Restaurant,34.1442587,-118.2559204,L.A. County Neighborhood (V6),glendale,,glendale-la-county-neighborhood-v6,/1.0/boundary-set/la-county-neighborhoods-v6/,"{ ""city"": """", ""name"": ""Glendale"", ""region"": ""verdugos"", ""county"": ""los-angeles"",",/1.0/boundary/glendale-la-county-neighborhood-v6/
Baldwin Park,3250 BIG DALTON AVE,BALDWIN PARK,91706,06/25/2013,99,Restaurant,34.0717058,-117.9629213,L.A. County Neighborhood (V6),baldwin-park,,baldwin-park-la-county-neighborhood-v6,/1.0/boundary-set/la-county-neighborhoods-v6/,"{ ""city"": """", ""name"": ""Baldwin Park"", ""region"": ""san-gabriel-valley"", ""county"":",/1.0/boundary/baldwin-park-la-county-neighborhood-v6/
Sun Valley,8430 SUNLAND BLVD,SUN VALLEY,91352,06/25/2013,96,Restaurant,34.2240599,-118.3655657,L.A. County Neighborhood (V6),sun-valley,,sun-valley-la-county-neighborhood-v6,/1.0/boundary-set/la-county-neighborhoods-v6/,"{ ""city"": ""los-angeles"", ""name"": ""Sun Valley"", ""region"": ""san-fernando-valley"",",/1.0/boundary/sun-valley-la-county-neighborhood-v6/
Studio City,555 UNIVERSAL HOLLYWOOD DR,UNIVERSAL CITY,91608,06/25/2013,94,Restaurant,34.137037,-118.358402,L.A. County Neighborhood (V6),studio-city,,studio-city-la-county-neighborhood-v6,/1.0/boundary-set/la-county-neighborhoods-v6/,"{ ""city"": ""los-angeles"", ""name"": ""Studio City"", ""region"": ""san-fernando-valley"",",/1.0/boundary/studio-city-la-county-neighborhood-v6/
San Gabriel,633 S SAN GABRIEL BLVD #105,SAN GABRIEL,91776,06/25/2013,91,Restaurant,34.0947315,-118.0911595,L.A. County Neighborhood (V6),san-gabriel,,san-gabriel-la-county-neighborhood-v6,/1.0/boundary-set/la-county-neighborhoods-v6/,"{ ""city"": """", ""name"": ""San Gabriel"", ""region"": ""san-gabriel-valley"", ""county"": """,/1.0/boundary/san-gabriel-la-county-neighborhood-v6/
Studio City,555 UNIVERSAL HOLLYWOOD DR,UNIVERSAL CITY,91608,06/25/2013,96,Restaurant,34.137037,-118.358402,L.A. County Neighborhood (V6),studio-city,,studio-city-la-county-neighborhood-v6,/1.0/boundary-set/la-county-neighborhoods-v6/,"{ ""city"": ""los-angeles"", ""name"": ""Studio City"", ""region"": ""san-fernando-valley"",",/1.0/boundary/studio-city-la-county-neighborhood-v6/
Studio City,555 UNIVERSAL HOLLYWOOD DR,UNIVERSAL CITY,91608,06/25/2013,98,Restaurant,34.137037,-118.358402,L.A. County Neighborhood (V6),studio-city,,studio-city-la-county-neighborhood-v6,/1.0/boundary-set/la-county-neighborhoods-v6/,"{ ""city"": ""los-angeles"", ""name"": ""Studio City"", ""region"": ""san-fernando-valley"",",/1.0/boundary/studio-city-la-county-neighborhood-v6/
Baldwin Park,3250 BIG DALTON AVE,BALDWIN PARK,91706,06/25/2013,99,Restaurant,34.0717058,-117.9629213,L.A. County Neighborhood (V6),baldwin-park,,baldwin-park-la-county-neighborhood-v6,/1.0/boundary-set/la-county-neighborhoods-v6/,"{ ""city"": """", ""name"": ""Baldwin Park"", ""region"": ""san-gabriel-valley"", ""county"":",/1.0/boundary/baldwin-park-la-county-neighborhood-v6/
Canoga Park,7231 TOPANGA CANYON BLVD,CANOGA PARK,91303,06/25/2013,100,Restaurant,34.2021681,-118.6064336,L.A. County Neighborhood (V6),canoga-park,,canoga-park-la-county-neighborhood-v6,/1.0/boundary-set/la-county-neighborhoods-v6/,"{ ""city"": ""los-angeles"", ""name"": ""Canoga Park"", ""region"": ""san-fernando-valley"",",/1.0/boundary/canoga-park-la-county-neighborhood-v6/
Santa Monica,829 BROADWAY D,SANTA MONICA,90401,06/25/2013,95,Restaurant,34.0188218,-118.4893833,L.A. County Neighborhood (V6),santa-monica,,santa-monica-la-county-neighborhood-v6,/1.0/boundary-set/la-county-neighborhoods-v6/,"{ ""city"": """", ""name"": ""Santa Monica"", ""region"": ""westside"", ""county"": ""los-angel",/1.0/boundary/santa-monica-la-county-neighborhood-v6/
Winnetka,20506 SHERMAN WY,CANOGA PARK,91306,06/25/2013,90,Restaurant,34.2009565,-118.5800117,L.A. County Neighborhood (V6),winnetka,,winnetka-la-county-neighborhood-v6,/1.0/boundary-set/la-county-neighborhoods-v6/,"{ ""city"": ""los-angeles"", ""name"": ""Winnetka"", ""region"": ""san-fernando-valley"", ""c",/1.0/boundary/winnetka-la-county-neighborhood-v6/
Malibu,23841 MALIBU RD #24,MALIBU,90265,06/25/2013,91,Restaurant,34.0342803,-118.693907,L.A. County Neighborhood (V6),malibu,,malibu-la-county-neighborhood-v6,/1.0/boundary-set/la-county-neighborhoods-v6/,"{ ""city"": """", ""name"": ""Malibu"", ""region"": ""santa-monica-mountains"", ""county"": ""l",/1.0/boundary/malibu-la-county-neighborhood-v6/
Koreatown,621 S WESTERN AVE. 101,LOS ANGELES,90005,06/24/2013,83,Restaurant,34.0728965,-118.3093475,L.A. County Neighborhood (V6),koreatown,,koreatown-la-county-neighborhood-v6,/1.0/boundary-set/la-county-neighborhoods-v6/,"{ ""city"": ""los-angeles"", ""name"": ""Koreatown"", ""region"": ""central-la"", ""county"":",/1.0/boundary/koreatown-la-county-neighborhood-v6/
Harvard Park,7126 S WESTERN AVE,LOS ANGELES,90047,06/24/2013,90,Restaurant,33.9746766,-118.3086894,L.A. County Neighborhood (V6),harvard-park,,harvard-park-la-county-neighborhood-v6,/1.0/boundary-set/la-county-neighborhoods-v6/,"{ ""city"": ""los-angeles"", ""name"": ""Harvard Park"", ""region"": ""south-la"", ""county"":",/1.0/boundary/harvard-park-la-county-neighborhood-v6/
Westmont,1408 W CENTURY BLVD,LOS ANGELES,90044,06/24/2013,90,Restaurant,33.9454751,-118.3004699,L.A. County Neighborhood (V6),westmont,,westmont-la-county-neighborhood-v6,/1.0/boundary-set/la-county-neighborhoods-v6/,"{ ""city"": """", ""name"": ""Westmont"", ""region"": ""south-la"", ""county"": ""los-angeles"",",/1.0/boundary/westmont-la-county-neighborhood-v6/
Harvard Park,6512 S WESTERN AVE,LOS ANGELES,90047,06/24/2013,95,Restaurant,33.9802469,-118.3087602,L.A. County Neighborhood (V6),harvard-park,,harvard-park-la-county-neighborhood-v6,/1.0/boundary-set/la-county-neighborhoods-v6/,"{ ""city"": ""los-angeles"", ""name"": ""Harvard Park"", ""region"": ""south-la"", ""county"":",/1.0/boundary/harvard-park-la-county-neighborhood-v6/
Hawthorne,12730 S HAWTHORNE BLVD F,HAWTHORNE,90250,06/24/2013,91,Restaurant,33.9164042,-118.3515789,L.A. County Neighborhood (V6),hawthorne,,hawthorne-la-county-neighborhood-v6,/1.0/boundary-set/la-county-neighborhoods-v6/,"{ ""city"": """", ""name"": ""Hawthorne"", ""region"": ""south-bay"", ""county"": ""los-angeles",/1.0/boundary/hawthorne-la-county-neighborhood-v6/
Gardena,13424 S CRENSHAW BLVD,GARDENA,90249,06/24/2013,90,Restaurant,33.909929,-118.3262585,L.A. County Neighborhood (V6),gardena,,gardena-la-county-neighborhood-v6,/1.0/boundary-set/la-county-neighborhoods-v6/,"{ ""city"": """", ""name"": ""Gardena"", ""region"": ""south-bay"", ""county"": ""los-angeles"",",/1.0/boundary/gardena-la-county-neighborhood-v6/
Hawthorne,4737 W IMPERIAL HWY,HAWTHORNE,90250,06/24/2013,91,Restaurant,33.9309639,-118.345908,L.A. County Neighborhood (V6),hawthorne,,hawthorne-la-county-neighborhood-v6,/1.0/boundary-set/la-county-neighborhoods-v6/,"{ ""city"": """", ""name"": ""Hawthorne"", ""region"": ""south-bay"", ""county"": ""los-angeles",/1.0/boundary/hawthorne-la-county-neighborhood-v6/
Hawthorne,4235 W EL SEGUNDO BLVD,HAWTHORNE,90250,06/24/2013,92,Restaurant,33.916735,-118.34895,L.A. County Neighborhood (V6),hawthorne,,hawthorne-la-county-neighborhood-v6,/1.0/boundary-set/la-county-neighborhoods-v6/,"{ ""city"": """", ""name"": ""Hawthorne"", ""region"": ""south-bay"", ""county"": ""los-angeles",/1.0/boundary/hawthorne-la-county-neighborhood-v6/
West Hollywood,9201 SUNSET BLVD,WEST HOLLYWOOD,90069,06/24/2013,99,Restaurant,34.0908255,-118.3925713,L.A. County Neighborhood (V6),west-hollywood,,west-hollywood-la-county-neighborhood-v6,/1.0/boundary-set/la-county-neighborhoods-v6/,"{ ""city"": """", ""name"": ""West Hollywood"", ""region"": ""central-la"", ""county"": ""los-a",/1.0/boundary/west-hollywood-la-county-neighborhood-v6/
Hawthorne,4182 W EL SEGUNDO BLVD,HAWTHORNE,90250,06/24/2013,91,Restaurant,33.916086,-118.347879,L.A. County Neighborhood (V6),hawthorne,,hawthorne-la-county-neighborhood-v6,/1.0/boundary-set/la-county-neighborhoods-v6/,"{ ""city"": """", ""name"": ""Hawthorne"", ""region"": ""south-bay"", ""county"": ""los-angeles",/1.0/boundary/hawthorne-la-county-neighborhood-v6/
Cypress Park,506 W AVENUE 28,LOS ANGELES,90065,06/24/2013,98,Restaurant,34.0849256,-118.2215257,L.A. County Neighborhood (V6),cypress-park,,cypress-park-la-county-neighborhood-v6,/1.0/boundary-set/la-county-neighborhoods-v6/,"{ ""city"": ""los-angeles"", ""name"": ""Cypress Park"", ""region"": ""northeast-la"", ""coun",/1.0/boundary/cypress-park-la-county-neighborhood-v6/
Harvard Park,6828 S WESTERN AVE,LOS ANGELES,90047,06/24/2013,90,Restaurant,33.9773206,-118.3089396,L.A. County Neighborhood (V6),harvard-park,,harvard-park-la-county-neighborhood-v6,/1.0/boundary-set/la-county-neighborhoods-v6/,"{ ""city"": ""los-angeles"", ""name"": ""Harvard Park"", ""region"": ""south-la"", ""county"":",/1.0/boundary/harvard-park-la-county-neighborhood-v6/
Norwalk,11939 E FIRESTONE BLVD,NORWALK,90650,06/24/2013,94,Restaurant,33.911194,-118.078394,L.A. County Neighborhood (V6),norwalk,,norwalk-la-county-neighborhood-v6,/1.0/boundary-set/la-county-neighborhoods-v6/,"{ ""city"": """", ""name"": ""Norwalk"", ""region"": ""southeast"", ""county"": ""los-angeles"",",/1.0/boundary/norwalk-la-county-neighborhood-v6/
Pomona,1637 N GAREY AVE,POMONA,91767,06/24/2013,87,Restaurant,34.0752358,-117.752495,L.A. County Neighborhood (V6),pomona,,pomona-la-county-neighborhood-v6,/1.0/boundary-set/la-county-neighborhoods-v6/,"{ ""city"": """", ""name"": ""Pomona"", ""region"": ""pomona-valley"", ""county"": ""los-angele",/1.0/boundary/pomona-la-county-neighborhood-v6/
Rowland Heights,18180 COLIMA RD #  B,ROWLAND HEIGHTS,91748,06/24/2013,85,Restaurant,33.9884156,-117.9072245,L.A. County Neighborhood (V6),rowland-heights,,rowland-heights-la-county-neighborhood-v6,/1.0/boundary-set/la-county-neighborhoods-v6/,"{ ""city"": """", ""name"": ""Rowland Heights"", ""region"": ""san-gabriel-valley"", ""county",/1.0/boundary/rowland-heights-la-county-neighborhood-v6/
Pomona,2001 S GAREY AVE,POMONA,91766,06/24/2013,99,Restaurant,34.035561,-117.750639,L.A. County Neighborhood (V6),pomona,,pomona-la-county-neighborhood-v6,/1.0/boundary-set/la-county-neighborhoods-v6/,"{ ""city"": """", ""name"": ""Pomona"", ""region"": ""pomona-valley"", ""county"": ""los-angele",/1.0/boundary/pomona-la-county-neighborhood-v6/
Norwalk,16026 S PIONEER BLVD,NORWALK,90650,06/24/2013,85,Restaurant,33.8854596,-118.0822683,L.A. County Neighborhood (V6),norwalk,,norwalk-la-county-neighborhood-v6,/1.0/boundary-set/la-county-neighborhoods-v6/,"{ ""city"": """", ""name"": ""Norwalk"", ""region"": ""southeast"", ""county"": ""los-angeles"",",/1.0/boundary/norwalk-la-county-neighborhood-v6/
Norwalk,14040 S SAN ANTONIO DR,NORWALK,90650,06/24/2013,97,Restaurant,33.9037925,-118.0807638,L.A. County Neighborhood (V6),norwalk,,norwalk-la-county-neighborhood-v6,/1.0/boundary-set/la-county-neighborhoods-v6/,"{ ""city"": """", ""name"": ""Norwalk"", ""region"": ""southeast"", ""county"": ""los-angeles"",",/1.0/boundary/norwalk-la-county-neighborhood-v6/
Diamond Bar,21725 E GATEWAY CENTER DR,DIAMOND BAR,91765,06/24/2013,94,Restaurant,34.000983,-117.8333818,L.A. County Neighborhood (V6),diamond-bar,,diamond-bar-la-county-neighborhood-v6,/1.0/boundary-set/la-county-neighborhoods-v6/,"{ ""city"": """", ""name"": ""Diamond Bar"", ""region"": ""san-gabriel-valley"", ""county"": """,/1.0/boundary/diamond-bar-la-county-neighborhood-v6/
Pomona,902 W MISSION BLVD,POMONA,91766,06/24/2013,95,Restaurant,34.0548595,-117.7588484,L.A. County Neighborhood (V6),pomona,,pomona-la-county-neighborhood-v6,/1.0/boundary-set/la-county-neighborhoods-v6/,"{ ""city"": """", ""name"": ""Pomona"", ""region"": ""pomona-valley"", ""county"": ""los-angele",/1.0/boundary/pomona-la-county-neighborhood-v6/
Pomona,1215 N WHITE AVE,POMONA,91768,06/24/2013,100,Restaurant,34.0697649,-117.759675,L.A. County Neighborhood (V6),pomona,,pomona-la-county-neighborhood-v6,/1.0/boundary-set/la-county-neighborhoods-v6/,"{ ""city"": """", ""name"": ""Pomona"", ""region"": ""pomona-valley"", ""county"": ""los-angele",/1.0/boundary/pomona-la-county-neighborhood-v6/
Downey,121 STONEWOOD ST,DOWNEY,90241,06/24/2013,96,Restaurant,33.936638,-118.121626,L.A. County Neighborhood (V6),downey,,downey-la-county-neighborhood-v6,/1.0/boundary-set/la-county-neighborhoods-v6/,"{ ""city"": """", ""name"": ""Downey"", ""region"": ""southeast"", ""county"": ""los-angeles"",",/1.0/boundary/downey-la-county-neighborhood-v6/
Florence-Firestone,1242 E FLORENCE AVE,LOS ANGELES,90001,06/24/2013,92,Restaurant,33.9747459,-118.2530977,L.A. County Neighborhood (V6),florence-firestone,,florence-firestone-la-county-neighborhood-v6,/1.0/boundary-set/la-county-neighborhoods-v6/,"{ ""city"": """", ""name"": ""Florence-Firestone"", ""region"": ""south-la"", ""county"": ""los",/1.0/boundary/florence-firestone-la-county-neighborhood-v6/
Boyle Heights,1209 S SOTO ST,LOS ANGELES,90023,06/24/2013,100,Restaurant,34.0277844,-118.2195068,L.A. County Neighborhood (V6),boyle-heights,,boyle-heights-la-county-neighborhood-v6,/1.0/boundary-set/la-county-neighborhoods-v6/,"{ ""city"": ""los-angeles"", ""name"": ""Boyle Heights"", ""region"": ""eastside"", ""county""",/1.0/boundary/boyle-heights-la-county-neighborhood-v6/
West Adams,3344 S LA CIENEGA BLVD,LOS ANGELES,90016,06/24/2013,97,Restaurant,34.0268649,-118.3717802,L.A. County Neighborhood (V6),west-adams,,west-adams-la-county-neighborhood-v6,/1.0/boundary-set/la-county-neighborhoods-v6/,"{ ""city"": ""los-angeles"", ""name"": ""West Adams"", ""region"": ""south-la"", ""county"": """,/1.0/boundary/west-adams-la-county-neighborhood-v6/
Boyle Heights,1210 S SOTO ST,LOS ANGELES,90023,06/24/2013,90,Restaurant,34.0275525,-118.2194894,L.A. County Neighborhood (V6),boyle-heights,,boyle-heights-la-county-neighborhood-v6,/1.0/boundary-set/la-county-neighborhoods-v6/,"{ ""city"": ""los-angeles"", ""name"": ""Boyle Heights"", ""region"": ""eastside"", ""county""",/1.0/boundary/boyle-heights-la-county-neighborhood-v6/
Pomona,2771 N GAREY AVE,POMONA,91767,06/24/2013,94,Restaurant,34.0956438,-117.7491316,L.A. County Neighborhood (V6),pomona,,pomona-la-county-neighborhood-v6,/1.0/boundary-set/la-county-neighborhoods-v6/,"{ ""city"": """", ""name"": ""Pomona"", ""region"": ""pomona-valley"", ""county"": ""los-angele",/1.0/boundary/pomona-la-county-neighborhood-v6/
Santa Clarita,25155 RYE CANYON LOOP,SANTA CLARITA,91355,06/24/2013,91,Restaurant,34.4561907,-118.5832393,L.A. County Neighborhood (V6),santa-clarita,,santa-clarita-la-county-neighborhood-v6,/1.0/boundary-set/la-county-neighborhoods-v6/,"{ ""city"": """", ""name"": ""Santa Clarita"", ""region"": ""northwest-county"", ""county"": """,/1.0/boundary/santa-clarita-la-county-neighborhood-v6/
Mission Hills,11333 N SEPULVEDA BLVD,MISSION HILLS,91345,06/24/2013,94,Restaurant,34.276657,-118.469098,L.A. County Neighborhood (V6),mission-hills,,mission-hills-la-county-neighborhood-v6,/1.0/boundary-set/la-county-neighborhoods-v6/,"{ ""city"": ""los-angeles"", ""name"": ""Mission Hills"", ""region"": ""san-fernando-valley",/1.0/boundary/mission-hills-la-county-neighborhood-v6/
Palms,10863 VENICE BLVD,LOS ANGELES,90034,06/24/2013,94,Restaurant,34.0167235,-118.4106854,L.A. County Neighborhood (V6),palms,,palms-la-county-neighborhood-v6,/1.0/boundary-set/la-county-neighborhoods-v6/,"{ ""city"": ""los-angeles"", ""name"": ""Palms"", ""region"": ""westside"", ""county"": ""los-a",/1.0/boundary/palms-la-county-neighborhood-v6/
Glendale,200 W BROADWAY,GLENDALE,91204,06/24/2013,98,Restaurant,34.146414,-118.2573587,L.A. County Neighborhood (V6),glendale,,glendale-la-county-neighborhood-v6,/1.0/boundary-set/la-county-neighborhoods-v6/,"{ ""city"": """", ""name"": ""Glendale"", ""region"": ""verdugos"", ""county"": ""los-angeles"",",/1.0/boundary/glendale-la-county-neighborhood-v6/
Burbank,3103 W MAGNOLIA BLVD,BURBANK,91505,06/24/2013,97,Restaurant,34.1699784,-118.3410569,L.A. County Neighborhood (V6),burbank,,burbank-la-county-neighborhood-v6,/1.0/boundary-set/la-county-neighborhoods-v6/,"{ ""city"": """", ""name"": ""Burbank"", ""region"": ""san-fernando-valley"", ""county"": ""los",/1.0/boundary/burbank-la-county-neighborhood-v6/
Baldwin Park,14433 RAMONA BLVD,BALDWIN PARK,91706,06/24/2013,99,Restaurant,34.088487,-117.958922,L.A. County Neighborhood (V6),baldwin-park,,baldwin-park-la-county-neighborhood-v6,/1.0/boundary-set/la-county-neighborhoods-v6/,"{ ""city"": """", ""name"": ""Baldwin Park"", ""region"": ""san-gabriel-valley"", ""county"":",/1.0/boundary/baldwin-park-la-county-neighborhood-v6/
Vincent,5210 CLYDEBANK AVE,AZUSA,91702,06/24/2013,97,Restaurant,34.107664,-117.920196,L.A. County Neighborhood (V6),vincent,,vincent-la-county-neighborhood-v6,/1.0/boundary-set/la-county-neighborhoods-v6/,"{ ""city"": """", ""name"": ""Vincent"", ""region"": ""san-gabriel-valley"", ""county"": ""los-",/1.0/boundary/vincent-la-county-neighborhood-v6/
Glendale,200 W BROADWAY,GLENDALE,91204,06/24/2013,97,Restaurant,34.146414,-118.2573587,L.A. County Neighborhood (V6),glendale,,glendale-la-county-neighborhood-v6,/1.0/boundary-set/la-county-neighborhoods-v6/,"{ ""city"": """", ""name"": ""Glendale"", ""region"": ""verdugos"", ""county"": ""los-angeles"",",/1.0/boundary/glendale-la-county-neighborhood-v6/
Palms,10319 VENICE BLVD,LOS ANGELES,90034,06/24/2013,92,Restaurant,34.021145,-118.403606,L.A. County Neighborhood (V6),palms,,palms-la-county-neighborhood-v6,/1.0/boundary-set/la-county-neighborhoods-v6/,"{ ""city"": ""los-angeles"", ""name"": ""Palms"", ""region"": ""westside"", ""county"": ""los-a",/1.0/boundary/palms-la-county-neighborhood-v6/
Baldwin Park,4386 N MAINE AVE,BALDWIN PARK,91706,06/24/2013,96,Restaurant,34.091868,-117.960143,L.A. County Neighborhood (V6),baldwin-park,,baldwin-park-la-county-neighborhood-v6,/1.0/boundary-set/la-county-neighborhoods-v6/,"{ ""city"": """", ""name"": ""Baldwin Park"", ""region"": ""san-gabriel-valley"", ""county"":",/1.0/boundary/baldwin-park-la-county-neighborhood-v6/
Burbank,3821 W MAGNOLIA BLVD,BURBANK,91505,06/24/2013,96,Restaurant,34.1674869,-118.3489415,L.A. County Neighborhood (V6),burbank,,burbank-la-county-neighborhood-v6,/1.0/boundary-set/la-county-neighborhoods-v6/,"{ ""city"": """", ""name"": ""Burbank"", ""region"": ""san-fernando-valley"", ""county"": ""los",/1.0/boundary/burbank-la-county-neighborhood-v6/
Encino,15466 VENTURA BLVD,SHERMAN OAKS,91403,06/24/2013,92,Restaurant,34.154594,-118.4709782,L.A. County Neighborhood (V6),encino,,encino-la-county-neighborhood-v6,/1.0/boundary-set/la-county-neighborhoods-v6/,"{ ""city"": ""los-angeles"", ""name"": ""Encino"", ""region"": ""san-fernando-valley"", ""cou",/1.0/boundary/encino-la-county-neighborhood-v6/
Encino,17047 1/2 VENTURA BLVD,ENCINO,91316,06/24/2013,92,Restaurant,34.1647085,-118.5256934,L.A. County Neighborhood (V6),encino,,encino-la-county-neighborhood-v6,/1.0/boundary-set/la-county-neighborhoods-v6/,"{ ""city"": ""los-angeles"", ""name"": ""Encino"", ""region"": ""san-fernando-valley"", ""cou",/1.0/boundary/encino-la-county-neighborhood-v6/
Westchester,6081 CENTER DR 201,LOS ANGELES,90045,06/24/2013,97,Restaurant,33.9780349,-118.391949,L.A. County Neighborhood (V6),westchester,,westchester-la-county-neighborhood-v6,/1.0/boundary-set/la-county-neighborhoods-v6/,"{ ""city"": ""los-angeles"", ""name"": ""Westchester"", ""region"": ""south-bay"", ""county"":",/1.0/boundary/westchester-la-county-neighborhood-v6/
Encino,17159 VENTURA BLVD,ENCINO,91316,06/24/2013,91,Restaurant,34.1605122,-118.5072805,L.A. County Neighborhood (V6),encino,,encino-la-county-neighborhood-v6,/1.0/boundary-set/la-county-neighborhoods-v6/,"{ ""city"": ""los-angeles"", ""name"": ""Encino"", ""region"": ""san-fernando-valley"", ""cou",/1.0/boundary/encino-la-county-neighborhood-v6/
Northridge,9420 RESEDA BLVD,NORTHRIDGE,91324,06/24/2013,97,Restaurant,34.2417913,-118.5355313,L.A. County Neighborhood (V6),northridge,,northridge-la-county-neighborhood-v6,/1.0/boundary-set/la-county-neighborhoods-v6/,"{ ""city"": ""los-angeles"", ""name"": ""Northridge"", ""region"": ""san-fernando-valley"",",/1.0/boundary/northridge-la-county-neighborhood-v6/
Gardena,1740 W ARTESIA BLVD A,GARDENA,90248,06/23/2013,94,Restaurant,33.8721473,-118.3075376,L.A. County Neighborhood (V6),gardena,,gardena-la-county-neighborhood-v6,/1.0/boundary-set/la-county-neighborhoods-v6/,"{ ""city"": """", ""name"": ""Gardena"", ""region"": ""south-bay"", ""county"": ""los-angeles"",",/1.0/boundary/gardena-la-county-neighborhood-v6/
Gardena,1740 W ARTESIA BLVD C,GARDENA,90248,06/23/2013,91,Restaurant,33.8721473,-118.3075376,L.A. County Neighborhood (V6),gardena,,gardena-la-county-neighborhood-v6,/1.0/boundary-set/la-county-neighborhoods-v6/,"{ ""city"": """", ""name"": ""Gardena"", ""region"": ""south-bay"", ""county"": ""los-angeles"",",/1.0/boundary/gardena-la-county-neighborhood-v6/
Gardena,1740 W ARTESIA BLVD B,GARDENA,90248,06/23/2013,97,Restaurant,33.8721473,-118.3075376,L.A. County Neighborhood (V6),gardena,,gardena-la-county-neighborhood-v6,/1.0/boundary-set/la-county-neighborhoods-v6/,"{ ""city"": """", ""name"": ""Gardena"", ""region"": ""south-bay"", ""county"": ""los-angeles"",",/1.0/boundary/gardena-la-county-neighborhood-v6/
Hollywood,6801 HOLLYWOOD BLVD 400,LOS ANGELES,90028,06/21/2013,90,Restaurant,34.1025925,-118.3402607,L.A. County Neighborhood (V6),hollywood,,hollywood-la-county-neighborhood-v6,/1.0/boundary-set/la-county-neighborhoods-v6/,"{ ""city"": ""los-angeles"", ""name"": ""Hollywood"", ""region"": ""central-la"", ""county"":",/1.0/boundary/hollywood-la-county-neighborhood-v6/
East Hollywood,850 N VERMONT AVE,LOS ANGELES,90029,06/21/2013,95,Restaurant,34.086889,-118.291342,L.A. County Neighborhood (V6),east-hollywood,,east-hollywood-la-county-neighborhood-v6,/1.0/boundary-set/la-county-neighborhoods-v6/,"{ ""city"": ""los-angeles"", ""name"": ""East Hollywood"", ""region"": ""central-la"", ""coun",/1.0/boundary/east-hollywood-la-county-neighborhood-v6/
Hawthorne,12211 S HAWTHORNE BLVD,HAWTHORNE,90250,06/21/2013,90,Restaurant,33.9215596,-118.3530583,L.A. County Neighborhood (V6),hawthorne,,hawthorne-la-county-neighborhood-v6,/1.0/boundary-set/la-county-neighborhoods-v6/,"{ ""city"": """", ""name"": ""Hawthorne"", ""region"": ""south-bay"", ""county"": ""los-angeles",/1.0/boundary/hawthorne-la-county-neighborhood-v6/
Beverly Hills,9360 WILSHIRE BLVD,BEVERLY HILLS,90212,06/21/2013,92,Restaurant,34.0667029,-118.396171,L.A. County Neighborhood (V6),beverly-hills,,beverly-hills-la-county-neighborhood-v6,/1.0/boundary-set/la-county-neighborhoods-v6/,"{ ""city"": """", ""name"": ""Beverly Hills"", ""region"": ""westside"", ""county"": ""los-ange",/1.0/boundary/beverly-hills-la-county-neighborhood-v6/
Lawndale,15000 HAWTHORNE BLVD,LAWNDALE,90260,06/21/2013,91,Restaurant,33.895313,-118.351757,L.A. County Neighborhood (V6),lawndale,,lawndale-la-county-neighborhood-v6,/1.0/boundary-set/la-county-neighborhoods-v6/,"{ ""city"": """", ""name"": ""Lawndale"", ""region"": ""south-bay"", ""county"": ""los-angeles""",/1.0/boundary/lawndale-la-county-neighborhood-v6/
Carthay,8300 WILSHIRE BLVD,BEVERLY HILLS,90211,06/21/2013,91,Restaurant,34.063963,-118.37206,L.A. County Neighborhood (V6),carthay,,carthay-la-county-neighborhood-v6,/1.0/boundary-set/la-county-neighborhoods-v6/,"{ ""city"": ""los-angeles"", ""name"": ""Carthay"", ""region"": ""central-la"", ""county"": ""l",/1.0/boundary/carthay-la-county-neighborhood-v6/
Inglewood,1041 S PRAIRIE AVE 5-6,INGLEWOOD,90301,06/21/2013,94,Restaurant,33.9503628,-118.3439463,L.A. County Neighborhood (V6),inglewood,,inglewood-la-county-neighborhood-v6,/1.0/boundary-set/la-county-neighborhoods-v6/,"{ ""city"": """", ""name"": ""Inglewood"", ""region"": ""south-bay"", ""county"": ""los-angeles",/1.0/boundary/inglewood-la-county-neighborhood-v6/
Lawndale,14316 S HAWTHORNE BLVD,LAWNDALE,90260,06/21/2013,90,Restaurant,33.8939315,-118.3523666,L.A. County Neighborhood (V6),lawndale,,lawndale-la-county-neighborhood-v6,/1.0/boundary-set/la-county-neighborhoods-v6/,"{ ""city"": """", ""name"": ""Lawndale"", ""region"": ""south-bay"", ""county"": ""los-angeles""",/1.0/boundary/lawndale-la-county-neighborhood-v6/
Century City,1875 CENTURY PARK EAST A,LOS ANGELES,90067,06/21/2013,83,Restaurant,34.060984,-118.414682,L.A. County Neighborhood (V6),century-city,,century-city-la-county-neighborhood-v6,/1.0/boundary-set/la-county-neighborhoods-v6/,"{ ""city"": ""los-angeles"", ""name"": ""Century City"", ""region"": ""westside"", ""county"":",/1.0/boundary/century-city-la-county-neighborhood-v6/
Inglewood,3550 W CENTURY BLVD,INGLEWOOD,90303,06/21/2013,90,Restaurant,33.9454432,-118.3348324,L.A. County Neighborhood (V6),inglewood,,inglewood-la-county-neighborhood-v6,/1.0/boundary-set/la-county-neighborhoods-v6/,"{ ""city"": """", ""name"": ""Inglewood"", ""region"": ""south-bay"", ""county"": ""los-angeles",/1.0/boundary/inglewood-la-county-neighborhood-v6/
Beverly Grove,7920 W 3RD ST,LOS ANGELES,90048,06/21/2013,97,Restaurant,34.0715102,-118.362223,L.A. County Neighborhood (V6),beverly-grove,,beverly-grove-la-county-neighborhood-v6,/1.0/boundary-set/la-county-neighborhoods-v6/,"{ ""city"": ""los-angeles"", ""name"": ""Beverly Grove"", ""region"": ""central-la"", ""count",/1.0/boundary/beverly-grove-la-county-neighborhood-v6/
Gardena,1353 W ROSECRANS AVE,GARDENA,90247,06/21/2013,90,Restaurant,33.9024147,-118.3000807,L.A. County Neighborhood (V6),gardena,,gardena-la-county-neighborhood-v6,/1.0/boundary-set/la-county-neighborhoods-v6/,"{ ""city"": """", ""name"": ""Gardena"", ""region"": ""south-bay"", ""county"": ""los-angeles"",",/1.0/boundary/gardena-la-county-neighborhood-v6/
Inglewood,1122 CENTINELA AVE,INGLEWOOD,90302,06/21/2013,90,Restaurant,33.9765915,-118.358627,L.A. County Neighborhood (V6),inglewood,,inglewood-la-county-neighborhood-v6,/1.0/boundary-set/la-county-neighborhoods-v6/,"{ ""city"": """", ""name"": ""Inglewood"", ""region"": ""south-bay"", ""county"": ""los-angeles",/1.0/boundary/inglewood-la-county-neighborhood-v6/
Gardena,1045 W ROSECRANS AVE,GARDENA,90247,06/21/2013,90,Restaurant,33.9019203,-118.2932419,L.A. County Neighborhood (V6),gardena,,gardena-la-county-neighborhood-v6,/1.0/boundary-set/la-county-neighborhoods-v6/,"{ ""city"": """", ""name"": ""Gardena"", ""region"": ""south-bay"", ""county"": ""los-angeles"",",/1.0/boundary/gardena-la-county-neighborhood-v6/
Pomona,"12 VILLAGE LOOP RD #A&B;",POMONA,91766,06/21/2013,96,Restaurant,34.0397162,-117.7549295,L.A. County Neighborhood (V6),pomona,,pomona-la-county-neighborhood-v6,/1.0/boundary-set/la-county-neighborhoods-v6/,"{ ""city"": """", ""name"": ""Pomona"", ""region"": ""pomona-valley"", ""county"": ""los-angele",/1.0/boundary/pomona-la-county-neighborhood-v6/
West Covina,510 S GLENDORA AVE,WEST COVINA,91790,06/21/2013,95,Restaurant,34.0655728,-117.9269609,L.A. County Neighborhood (V6),west-covina,,west-covina-la-county-neighborhood-v6,/1.0/boundary-set/la-county-neighborhoods-v6/,"{ ""city"": """", ""name"": ""West Covina"", ""region"": ""san-gabriel-valley"", ""county"": """,/1.0/boundary/west-covina-la-county-neighborhood-v6/
Pomona,1604 W MISSION BLVD,POMONA,91766,06/21/2013,95,Restaurant,34.0536037,-117.7754593,L.A. County Neighborhood (V6),pomona,,pomona-la-county-neighborhood-v6,/1.0/boundary-set/la-county-neighborhoods-v6/,"{ ""city"": """", ""name"": ""Pomona"", ""region"": ""pomona-valley"", ""county"": ""los-angele",/1.0/boundary/pomona-la-county-neighborhood-v6/
Norwalk,10555 E FIRESTONE BLVD,NORWALK,90650,06/21/2013,98,Restaurant,33.9265879,-118.1061875,L.A. County Neighborhood (V6),norwalk,,norwalk-la-county-neighborhood-v6,/1.0/boundary-set/la-county-neighborhoods-v6/,"{ ""city"": """", ""name"": ""Norwalk"", ""region"": ""southeast"", ""county"": ""los-angeles"",",/1.0/boundary/norwalk-la-county-neighborhood-v6/
Artesia,17104 S PIONEER BLVD,ARTESIA,90701,06/21/2013,91,Restaurant,33.8756288,-118.0823662,L.A. County Neighborhood (V6),artesia,,artesia-la-county-neighborhood-v6,/1.0/boundary-set/la-county-neighborhoods-v6/,"{ ""city"": """", ""name"": ""Artesia"", ""region"": ""southeast"", ""county"": ""los-angeles"",",/1.0/boundary/artesia-la-county-neighborhood-v6/
Pomona,3220 W TEMPLE AVE,POMONA,91766,06/21/2013,93,Restaurant,34.0460993,-117.8036135,L.A. County Neighborhood (V6),pomona,,pomona-la-county-neighborhood-v6,/1.0/boundary-set/la-county-neighborhoods-v6/,"{ ""city"": """", ""name"": ""Pomona"", ""region"": ""pomona-valley"", ""county"": ""los-angele",/1.0/boundary/pomona-la-county-neighborhood-v6/
La Puente,1318 N HACIENDA BLVD,LA PUENTE,91744,06/21/2013,99,Restaurant,34.044333,-117.9491634,L.A. County Neighborhood (V6),la-puente,,la-puente-la-county-neighborhood-v6,/1.0/boundary-set/la-county-neighborhoods-v6/,"{ ""city"": """", ""name"": ""La Puente"", ""region"": ""san-gabriel-valley"", ""county"": ""lo",/1.0/boundary/la-puente-la-county-neighborhood-v6/
Norwalk,10635 E IMPERIAL HWY,NORWALK,90650,06/21/2013,92,Restaurant,33.9171667,-118.1071159,L.A. County Neighborhood (V6),norwalk,,norwalk-la-county-neighborhood-v6,/1.0/boundary-set/la-county-neighborhoods-v6/,"{ ""city"": """", ""name"": ""Norwalk"", ""region"": ""southeast"", ""county"": ""los-angeles"",",/1.0/boundary/norwalk-la-county-neighborhood-v6/
Glendora,1223 E ROUTE 66,GLENDORA,91740,06/21/2013,91,Restaurant,34.1290624,-117.8432529,L.A. County Neighborhood (V6),glendora,,glendora-la-county-neighborhood-v6,/1.0/boundary-set/la-county-neighborhoods-v6/,"{ ""city"": """", ""name"": ""Glendora"", ""region"": ""san-gabriel-valley"", ""county"": ""los",/1.0/boundary/glendora-la-county-neighborhood-v6/
West Covina,2122 W FRANCISQUITO AVE B,WEST COVINA,91790,06/21/2013,99,Restaurant,34.0603562,-117.9635464,L.A. County Neighborhood (V6),west-covina,,west-covina-la-county-neighborhood-v6,/1.0/boundary-set/la-county-neighborhoods-v6/,"{ ""city"": """", ""name"": ""West Covina"", ""region"": ""san-gabriel-valley"", ""county"": """,/1.0/boundary/west-covina-la-county-neighborhood-v6/
Norwalk,10628 E IMPERIAL HWY,NORWALK,90650,06/21/2013,90,Restaurant,33.9170111,-118.1071313,L.A. County Neighborhood (V6),norwalk,,norwalk-la-county-neighborhood-v6,/1.0/boundary-set/la-county-neighborhoods-v6/,"{ ""city"": """", ""name"": ""Norwalk"", ""region"": ""southeast"", ""county"": ""los-angeles"",",/1.0/boundary/norwalk-la-county-neighborhood-v6/
Bellflower,17847 S LAKEWOOD BLVD,BELLFLOWER,90706,06/21/2013,95,Restaurant,33.869798,-118.142849,L.A. County Neighborhood (V6),bellflower,,bellflower-la-county-neighborhood-v6,/1.0/boundary-set/la-county-neighborhoods-v6/,"{ ""city"": """", ""name"": ""Bellflower"", ""region"": ""southeast"", ""county"": ""los-angele",/1.0/boundary/bellflower-la-county-neighborhood-v6/
